geonameId,"name","asciiname",lat,long,"countryCode",population,elevation,"timezone"
14256,"Āzādshahr","Azadshahr",34.79049000,48.57011000,"IR",514102,0,"Asia/Tehran"
18918,"Protaras","Protaras",35.01250000,34.05833000,"CY",20230,0,"Asia/Nicosia"
23814,"Kahrīz","Kahriz",34.38380000,47.05530000,"IR",766706,0,"Asia/Tehran"
24851,"Nūrābād","Nurabad",34.07340000,47.97250000,"IR",73528,0,"Asia/Tehran"
32723,"Īstgāh-e Rāh Āhan-e Garmsār","Istgah-e Rah Ahan-e Garmsar",35.23455000,52.30942000,"IR",49491,0,"Asia/Tehran"
32767,"Qarchak","Qarchak",35.42867000,51.57544000,"IR",251834,0,"Asia/Tehran"
32904,"Shahrak-e Emām Ḩasan","Shahrak-e Emam Hasan",35.48846000,51.34567000,"IR",5394,0,"Asia/Tehran"
32909,"Shahre Jadide Andisheh","Shahre Jadide Andisheh",35.68030000,51.01930000,"IR",80000,1200,"Asia/Tehran"
39874,"Āq Qāyeh","Aq Qayeh",37.27472000,55.15889000,"IR",5114,0,"Asia/Tehran"
41210,"Khorramdarreh","Khorramdarreh",36.20898000,49.19152000,"IR",50528,0,"Asia/Tehran"
49593,"Yeed","Yeed",4.55000000,43.03333000,"SO",8429,0,"Africa/Mogadishu"
49747,"Xuddur","Xuddur",4.12129000,43.88945000,"SO",12500,0,"Africa/Mogadishu"
50672,"Wanlaweyn","Wanlaweyn",2.61850000,44.89380000,"SO",22022,0,"Africa/Mogadishu"
50814,"Waajid","Waajid",3.80958000,43.24627000,"SO",6666,0,"Africa/Mogadishu"
52381,"Saacow","Saacow",1.62794000,42.44067000,"SO",7893,0,"Africa/Mogadishu"
52867,"Qoryooley","Qoryooley",1.78784000,44.52999000,"SO",51720,0,"Africa/Mogadishu"
53157,"Qandala","Qandala",11.47197000,49.87282000,"SO",15923,0,"Africa/Mogadishu"
53372,"Oodweyne","Oodweyne",9.40920000,45.06397000,"SO",5491,0,"Africa/Mogadishu"
53654,"Mogadishu","Mogadishu",2.03711000,45.34375000,"SO",2587183,0,"Africa/Mogadishu"
54225,"Marka","Marka",1.71594000,44.77166000,"SO",230100,0,"Africa/Mogadishu"
54460,"Mahaddayweyne","Mahaddayweyne",2.97260000,45.53470000,"SO",8273,0,"Africa/Mogadishu"
54715,"Luuq","Luuq",3.80315000,42.54417000,"SO",33820,0,"Africa/Mogadishu"
55223,"Las Khorey","Las Khorey",11.15950000,48.19670000,"SO",6941,0,"Africa/Mogadishu"
55671,"Kismayo","Kismayo",-0.35817000,42.54536000,"SO",234852,0,"Africa/Mogadishu"
56166,"Jilib","Jilib",0.48829000,42.78535000,"SO",43694,0,"Africa/Mogadishu"
56335,"Jawhar","Jawhar",2.78087000,45.50048000,"SO",47086,0,"Africa/Mogadishu"
56399,"Jamaame","Jamaame",0.06968000,42.74497000,"SO",185270,0,"Africa/Mogadishu"
56414,"Jalalaqsi","Jalalaqsi",3.37660000,45.59960000,"SO",9743,0,"Africa/Mogadishu"
56505,"Iskushuban","Iskushuban",10.28370000,50.23000000,"SO",5759,0,"Africa/Mogadishu"
57000,"Hobyo","Hobyo",5.35050000,48.52680000,"SO",12564,0,"Africa/Mogadishu"
57289,"Hargeysa","Hargeysa",9.56000000,44.06500000,"SO",477876,0,"Africa/Mogadishu"
58933,"Garoowe","Garoowe",8.40207000,48.48284000,"SO",57300,0,"Africa/Mogadishu"
58994,"Garbahaarrey","Garbahaarrey",3.32892000,42.22091000,"SO",12652,0,"Africa/Mogadishu"
59611,"Gaalkacyo","Gaalkacyo",6.76972000,47.43083000,"SO",61200,0,"Africa/Mogadishu"
60019,"Eyl","Eyl",7.98030000,49.81640000,"SO",18904,0,"Africa/Mogadishu"
60928,"Dhuusamarreeb","Dhuusamarreeb",5.53597000,46.38666000,"SO",9000,0,"Africa/Mogadishu"
62691,"Ceerigaabo","Ceerigaabo",10.61616000,47.36795000,"SO",33853,0,"Africa/Mogadishu"
62788,"Ceeldheer","Ceeldheer",3.84878000,47.18064000,"SO",26562,0,"Africa/Mogadishu"
62821,"Ceelbuur","Ceelbuur",4.68501000,46.61760000,"SO",9031,0,"Africa/Mogadishu"
63081,"Caluula","Caluula",11.96611000,50.75694000,"SO",6100,0,"Africa/Mogadishu"
63344,"Cadale","Cadale",2.76030000,46.32220000,"SO",5385,0,"Africa/Mogadishu"
63571,"Buurhakaba","Buurhakaba",2.80257000,44.07805000,"SO",27792,0,"Africa/Mogadishu"
63689,"Buulobarde","Buulobarde",3.85375000,45.56744000,"SO",16928,0,"Africa/Mogadishu"
63795,"Burao","Burao",9.52213000,45.53363000,"SO",99270,0,"Africa/Mogadishu"
63949,"Bu’aale","Bu'aale",1.08333000,42.58333000,"SO",0,0,"Africa/Mogadishu"
64013,"Bosaso","Bosaso",11.28421000,49.18158000,"SO",74287,0,"Africa/Mogadishu"
64412,"Bereeda","Bereeda",11.87037000,51.05795000,"SO",11262,0,"Africa/Mogadishu"
64435,"Berbera","Berbera",10.43959000,45.01432000,"SO",242344,0,"Africa/Mogadishu"
64460,"Beledweyne","Beledweyne",4.73583000,45.20361000,"SO",55410,0,"Africa/Mogadishu"
64536,"Baidoa","Baidoa",3.11383000,43.64980000,"SO",129839,0,"Africa/Mogadishu"
64670,"Bargaal","Bargaal",11.28636000,51.07730000,"SO",6798,0,"Africa/Mogadishu"
64814,"Bandarbeyla","Bandarbeyla",9.49420000,50.81220000,"SO",13753,0,"Africa/Mogadishu"
65170,"Baardheere","Baardheere",2.34464000,42.27644000,"SO",42240,0,"Africa/Mogadishu"
65785,"Afgooye","Afgooye",2.13810000,45.12120000,"SO",65461,0,"Africa/Mogadishu"
66093,"Yasuj","Yasuj",30.66824000,51.58796000,"IR",96786,0,"Asia/Tehran"
69426,"Zinjibār","Zinjibar",13.12871000,45.38073000,"YE",19879,0,"Asia/Aden"
69500,"Zabīd","Zabid",14.19510000,43.31518000,"YE",52590,0,"Asia/Aden"
69559,"Yarīm","Yarim",14.29804000,44.37795000,"YE",33050,0,"Asia/Aden"
70225,"Ta‘izz","Ta`izz",13.57952000,44.02091000,"YE",615222,1400,"Asia/Aden"
70979,"Sayyān","Sayyan",15.17177000,44.32442000,"YE",69404,0,"Asia/Aden"
71137,"Sanaa","Sanaa",15.35472000,44.20667000,"YE",1937451,0,"Asia/Aden"
71273,"Saḩar","Sahar",15.31586000,44.30858000,"YE",31859,0,"Asia/Aden"
71334,"Sa'dah","Sa'dah",16.94021000,43.76393000,"YE",51870,0,"Asia/Aden"
72968,"Ma'rib","Ma'rib",15.46253000,45.32581000,"YE",16794,0,"Asia/Aden"
73560,"Laḩij","Lahij",13.05667000,44.88194000,"YE",23375,0,"Asia/Aden"
74219,"Jawf al Maqbābah","Jawf al Maqbabah",13.83783000,45.83488000,"YE",14175,0,"Asia/Aden"
74477,"Ibb","Ibb",13.96667000,44.18333000,"YE",234837,0,"Asia/Aden"
75337,"Ḩajjah","Hajjah",15.69425000,43.60582000,"YE",43549,0,"Asia/Aden"
75427,"Hadibu","Hadibu",12.64881000,54.01895000,"YE",8545,0,"Asia/Aden"
76154,"Dhī as Sufāl","Dhi as Sufal",13.83446000,44.11469000,"YE",37997,0,"Asia/Aden"
76184,"Dhamār","Dhamar",14.54274000,44.40514000,"YE",160114,0,"Asia/Aden"
76991,"Bayt al Faqīh","Bayt al Faqih",14.51635000,43.32446000,"YE",34204,0,"Asia/Aden"
77408,"Bājil","Bajil",15.05898000,43.28731000,"YE",48218,0,"Asia/Aden"
77726,"Ataq","Ataq",14.53767000,46.83187000,"YE",37315,0,"Asia/Aden"
78428,"‘Amrān","'Amran",15.65940000,43.94385000,"YE",90792,0,"Asia/Aden"
78754,"Al Mukallā","Al Mukalla",14.54248000,49.12424000,"YE",258132,0,"Asia/Aden"
78977,"Al Maḩwīt","Al Mahwit",15.47007000,43.54481000,"YE",10593,0,"Asia/Aden"
79415,"Al Ḩudaydah","Al Hudaydah",14.79781000,42.95452000,"YE",617871,0,"Asia/Aden"
79455,"Al Ḩazm","Al Hazm",16.16406000,44.77692000,"YE",18241,0,"Asia/Aden"
79700,"Al Ghayz̧ah","Al Ghayzah",16.20787000,52.17605000,"YE",10948,0,"Asia/Aden"
79836,"Al Bayda","Al Bayda",13.98523000,45.57272000,"YE",37821,0,"Asia/Aden"
80384,"Dhalie","Dhalie",13.69572000,44.73137000,"YE",14760,0,"Asia/Aden"
80509,"Bardīyah","Bardiyah",31.75615000,25.08653000,"LY",9149,0,"Africa/Tripoli"
81302,"Tobruk","Tobruk",32.08361000,23.97639000,"LY",121052,0,"Africa/Tripoli"
81604,"Sulūq","Suluq",31.66818000,20.25205000,"LY",15543,0,"Africa/Tripoli"
87205,"Darnah","Darnah",32.76704000,22.63669000,"LY",78782,0,"Africa/Tripoli"
88319,"Benghazi","Benghazi",32.11486000,20.06859000,"LY",650629,0,"Africa/Tripoli"
88380,"Az Zuwaytīnah","Az Zuwaytinah",30.95220000,20.12022000,"LY",21015,0,"Africa/Tripoli"
88533,"Awjilah","Awjilah",29.10806000,21.28694000,"LY",6610,0,"Africa/Tripoli"
88562,"At Tāj","At Taj",24.20487000,23.28570000,"LY",46050,0,"Africa/Tripoli"
88834,"Tūkrah","Tukrah",32.53414000,20.57911000,"LY",23164,0,"Africa/Tripoli"
88835,"Al Qubbah","Al Qubbah",32.76163000,22.24237000,"LY",24631,0,"Africa/Tripoli"
88903,"Al Marj","Al Marj",32.48798000,20.83174000,"LY",85315,0,"Africa/Tripoli"
88962,"Al Jawf","Al Jawf",24.19890000,23.29093000,"LY",17320,0,"Africa/Tripoli"
89055,"Al Bayḑā’","Al Bayda'",32.76272000,21.75506000,"LY",74594,0,"Africa/Tripoli"
89087,"Al Abyār","Al Abyar",32.19000000,20.59653000,"LY",32563,0,"Africa/Tripoli"
89113,"Ajdabiya","Ajdabiya",30.75545000,20.22625000,"LY",134358,0,"Africa/Tripoli"
89570,"Zaxo","Zaxo",37.14871000,42.68591000,"IQ",95052,0,"Asia/Baghdad"
89824,"Umm Qaşr","Umm Qasr",30.03620000,47.91951000,"IQ",107620,9,"Asia/Baghdad"
90026,"Tozkhurmato","Tozkhurmato",34.88808000,44.63256000,"IQ",59886,0,"Asia/Baghdad"
90150,"Tikrīt","Tikrit",34.61581000,43.67861000,"IQ",42477,0,"Asia/Baghdad"
90353,"Tallkayf","Tallkayf",36.49109000,43.12026000,"IQ",23524,0,"Asia/Baghdad"
90708,"Sīnah","Sinah",36.80752000,43.03831000,"IQ",128776,0,"Asia/Baghdad"
91597,"Sāmarrā’","Samarra'",34.19590000,43.88568000,"IQ",158508,0,"Asia/Baghdad"
91812,"Nāḩīyat Saddat al Hindīyah","Nahiyat Saddat al Hindiyah",32.71557000,44.27857000,"IQ",30622,0,"Asia/Baghdad"
92002,"Ruwāndiz","Ruwandiz",36.61207000,44.52372000,"IQ",22943,0,"Asia/Baghdad"
92004,"Rāwah","Rawah",34.48229000,41.91898000,"IQ",13000,0,"Asia/Baghdad"
92430,"Al-Hamdaniya","Al-Hamdaniya",36.27093000,43.37758000,"IQ",50000,0,"Asia/Baghdad"
93709,"Mandalī","Mandali",33.74810000,45.55503000,"IQ",29785,0,"Asia/Baghdad"
94220,"Koysinceq","Koysinceq",36.08289000,44.62873000,"IQ",44987,0,"Asia/Baghdad"
94298,"Kifrī","Kifri",34.68963000,44.96057000,"IQ",30143,0,"Asia/Baghdad"
94787,"Kirkuk","Kirkuk",35.46806000,44.39222000,"IQ",601433,0,"Asia/Baghdad"
94824,"Karbala","Karbala",32.61603000,44.02488000,"IQ",434450,0,"Asia/Baghdad"
95446,"Erbil","Erbil",36.19257000,44.01062000,"IQ",932800,0,"Asia/Baghdad"
95788,"Hīt","Hit",33.63664000,42.82768000,"IQ",31901,0,"Asia/Baghdad"
96205,"Ḩalabjah","Halabjah",35.17778000,45.98611000,"IQ",57333,0,"Asia/Baghdad"
96309,"Ḩadīthah","Hadithah",34.13661000,42.37727000,"IQ",30925,0,"Asia/Baghdad"
96994,"Dihok","Dihok",36.86709000,42.98845000,"IQ",284000,0,"Asia/Baghdad"
97417,"Jamjamāl","Jamjamal",35.53356000,44.83430000,"IQ",75634,0,"Asia/Baghdad"
97783,"Bayjī","Bayji",34.92915000,43.48878000,"IQ",36454,0,"Asia/Baghdad"
97990,"Baqubah","Baqubah",33.75403000,44.60518000,"IQ",152550,0,"Asia/Baghdad"
98012,"Baynjiwayn","Baynjiwayn",35.62329000,45.94714000,"IQ",27116,0,"Asia/Baghdad"
98112,"Balad","Balad",34.01485000,44.14574000,"IQ",42088,0,"Asia/Baghdad"
98182,"Baghdad","Baghdad",33.34058000,44.40088000,"IQ",7216000,0,"Asia/Baghdad"
98245,"Az Zubayr","Az Zubayr",30.39213000,47.70175000,"IQ",122676,0,"Asia/Baghdad"
98459,"Aş Şuwayrah","As Suwayrah",32.92556000,44.77583000,"IQ",42354,0,"Asia/Baghdad"
98463,"As Sulaymānīyah","As Sulaymaniyah",35.56496000,45.43290000,"IQ",723170,0,"Asia/Baghdad"
98530,"As Samawah","As Samawah",31.33198000,45.29440000,"IQ",152890,0,"Asia/Baghdad"
98589,"Nāḩiyat ash Shināfīyah","Nahiyat ash Shinafiyah",31.58376000,44.64675000,"IQ",22643,0,"Asia/Baghdad"
98622,"Ash Shaţrah","Ash Shatrah",31.40906000,46.17270000,"IQ",82732,0,"Asia/Baghdad"
98629,"Ash Shāmīyah","Ash Shamiyah",31.96257000,44.60075000,"IQ",57661,0,"Asia/Baghdad"
98677,"Ar Ruţbah","Ar Rutbah",33.03718000,40.28586000,"IQ",22370,0,"Asia/Baghdad"
98685,"Ar Rumaythah","Ar Rumaythah",31.52845000,45.20377000,"IQ",47248,0,"Asia/Baghdad"
98717,"Ramadi","Ramadi",33.42056000,43.30778000,"IQ",274539,0,"Asia/Baghdad"
98822,"‘Aqrah","'Aqrah",36.73322000,43.87964000,"IQ",23000,0,"Asia/Baghdad"
98854,"Nasiriyah","Nasiriyah",31.05799000,46.25726000,"IQ",400249,0,"Asia/Baghdad"
98860,"Najaf","Najaf",32.02594000,44.34625000,"IQ",482576,0,"Asia/Baghdad"
98885,"‘Anat al Qadīmah","'Anat al Qadimah",34.46934000,41.94223000,"IQ",19719,0,"Asia/Baghdad"
99010,"Imam Qasim","Imam Qasim",32.29799000,44.68282000,"IQ",36992,0,"Asia/Baghdad"
99039,"Al Musayyib","Al Musayyib",32.77872000,44.29005000,"IQ",42901,0,"Asia/Baghdad"
99060,"Al Mishkhāb","Al Mishkhab",31.80437000,44.48930000,"IQ",23189,0,"Asia/Baghdad"
99062,"Al Miqdādīyah","Al Miqdadiyah",33.97861000,44.93694000,"IQ",50698,0,"Asia/Baghdad"
99071,"Al Mawşil al Jadīdah","Al Mawsil al Jadidah",36.33271000,43.10555000,"IQ",2065597,0,"Asia/Baghdad"
99072,"Mosul","Mosul",36.33500000,43.11889000,"IQ",1739800,0,"Asia/Baghdad"
99131,"Al Kūt","Al Kut",32.51280000,45.81817000,"IQ",315162,0,"Asia/Baghdad"
99135,"Kufa","Kufa",32.05114000,44.44017000,"IQ",110000,0,"Asia/Baghdad"
99169,"Khāliş","Khalis",33.80809000,44.53343000,"IQ",70046,0,"Asia/Baghdad"
99306,"‘Alī al Gharbī","'Ali al Gharbi",32.46186000,46.68794000,"IQ",19711,0,"Asia/Baghdad"
99344,"Al Hindīyah","Al Hindiyah",32.54671000,44.22765000,"IQ",57490,0,"Asia/Baghdad"
99347,"Al Ḩillah","Al Hillah",32.46367000,44.41963000,"IQ",289709,0,"Asia/Baghdad"
99350,"Al Ḩayy","Al Hayy",32.17419000,46.04345000,"IQ",78272,0,"Asia/Baghdad"
99369,"Al Hārithah","Al Harithah",30.58481000,47.76114000,"IQ",92395,0,"Asia/Baghdad"
99434,"Nahiyat Ghammas","Nahiyat Ghammas",31.74311000,44.61960000,"IQ",30909,0,"Asia/Baghdad"
99439,"Nāḩiyat al Fuhūd","Nahiyat al Fuhud",30.96972000,46.72278000,"IQ",21551,0,"Asia/Baghdad"
99446,"Al Fāw","Al Faw",29.97421000,48.47309000,"IQ",104569,0,"Asia/Baghdad"
99454,"Al Fallūjah","Al Fallujah",33.34913000,43.78599000,"IQ",190159,0,"Asia/Baghdad"
99532,"Basrah","Basrah",30.50852000,47.78040000,"IQ",2600000,0,"Asia/Baghdad"
99548,"Al ‘Azīzīyah","Al 'Aziziyah",32.90941000,45.06359000,"IQ",44751,0,"Asia/Baghdad"
99608,"Al ‘Amārah","Al 'Amarah",31.83561000,47.14483000,"IQ",323302,0,"Asia/Baghdad"
99738,"‘Afak","'Afak",32.06430000,45.24743000,"IQ",21888,0,"Asia/Baghdad"
99759,"Ad Dujayl","Ad Dujayl",33.84667000,44.23444000,"IQ",26362,0,"Asia/Baghdad"
99762,"Ad Dīwānīyah","Ad Diwaniyah",31.99289000,44.92552000,"IQ",318801,0,"Asia/Baghdad"
100077,"Abū Ghurayb","Abu Ghurayb",33.30563000,44.18477000,"IQ",900000,0,"Asia/Baghdad"
100425,"Yanbu","Yanbu",24.08912000,38.06374000,"SA",200161,0,"Asia/Riyadh"
100926,"Umm Lajj","Umm Lajj",25.02126000,37.26850000,"SA",33874,0,"Asia/Riyadh"
101035,"Umm as Sāhik","Umm as Sahik",26.65361000,49.91639000,"SA",11813,0,"Asia/Riyadh"
101312,"Turaif","Turaif",31.67252000,38.66374000,"SA",40819,0,"Asia/Riyadh"
101322,"Turabah","Turabah",21.21406000,41.63310000,"SA",23235,0,"Asia/Riyadh"
101344,"At Tūbī","At Tubi",26.55778000,49.99167000,"SA",7740,0,"Asia/Riyadh"
101554,"Tārūt","Tarut",26.57332000,50.03694000,"SA",85371,0,"Asia/Riyadh"
101581,"Tanūmah","Tanumah",27.10000000,44.13333000,"SA",13594,0,"Asia/Riyadh"
101628,"Tabuk","Tabuk",28.39980000,36.57151000,"SA",455450,0,"Asia/Riyadh"
101631,"Ţubarjal","Tubarjal",30.49987000,38.21603000,"SA",40019,0,"Asia/Riyadh"
101633,"Tabālah","Tabalah",19.95000000,42.40000000,"SA",5151,0,"Asia/Riyadh"
101760,"Sulţānah","Sultanah",24.49258000,39.58572000,"SA",946697,0,"Asia/Riyadh"
102318,"Sayhāt","Sayhat",26.48522000,50.04046000,"SA",66702,0,"Asia/Riyadh"
102451,"Şāmitah","Samitah",16.59601000,42.94435000,"SA",26945,0,"Asia/Riyadh"
102527,"Sakakah","Sakakah",29.96974000,40.20641000,"SA",128332,0,"Asia/Riyadh"
102585,"Şafwá","Safwa",26.64986000,49.95223000,"SA",45876,0,"Asia/Riyadh"
102651,"Şabyā","Sabya",17.14950000,42.62537000,"SA",54108,0,"Asia/Riyadh"
102985,"Raḩīmah","Rahimah",26.70791000,50.06194000,"SA",41188,0,"Asia/Riyadh"
103035,"Rābigh","Rabigh",22.79856000,39.03493000,"SA",41759,0,"Asia/Riyadh"
103369,"Qal‘at Bīshah","Qal`at Bishah",20.00054000,42.60520000,"SA",81828,0,"Asia/Riyadh"
103630,"Najrān","Najran",17.49326000,44.12766000,"SA",258573,0,"Asia/Riyadh"
103922,"Mulayjah","Mulayjah",27.27103000,48.42419000,"SA",5247,0,"Asia/Riyadh"
104269,"Mislīyah","Misliyah",17.45988000,42.55720000,"SA",6117,0,"Asia/Riyadh"
104376,"Marāt","Marat",25.07007000,45.46147000,"SA",8885,0,"Asia/Riyadh"
104515,"Mecca","Mecca",21.42664000,39.82563000,"SA",1323624,0,"Asia/Riyadh"
105072,"Khamis Mushait","Khamis Mushait",18.30000000,42.73333000,"SA",387553,0,"Asia/Riyadh"
105252,"Julayjilah","Julayjilah",25.50000000,49.60000000,"SA",5359,0,"Asia/Riyadh"
105299,"Jizan","Jizan",16.88917000,42.55111000,"SA",105198,0,"Asia/Riyadh"
105343,"Jeddah","Jeddah",21.54238000,39.19797000,"SA",2867446,0,"Asia/Riyadh"
106281,"Ha'il","Ha'il",27.52188000,41.69073000,"SA",267005,0,"Asia/Riyadh"
106744,"Farasān","Farasan",16.70222000,42.11833000,"SA",10527,0,"Asia/Riyadh"
106909,"Duba","Duba",27.35134000,35.69014000,"SA",22000,0,"Asia/Riyadh"
107304,"Buraydah","Buraydah",26.32599000,43.97497000,"SA",391336,0,"Asia/Riyadh"
107312,"Abqaiq","Abqaiq",25.93710000,49.67761000,"SA",29474,0,"Asia/Riyadh"
107744,"Badr Ḩunayn","Badr Hunayn",23.78292000,38.79047000,"SA",27257,0,"Asia/Riyadh"
107781,"Az Zulfi","Az Zulfi",26.29945000,44.81542000,"SA",53144,0,"Asia/Riyadh"
107797,"Dhahran","Dhahran",26.28864000,50.11396000,"SA",99540,0,"Asia/Riyadh"
107959,"Aţ Ţaraf","At Taraf",25.36276000,49.72504000,"SA",21386,0,"Asia/Riyadh"
107968,"Ta’if","Ta'if",21.27028000,40.41583000,"SA",530848,0,"Asia/Riyadh"
108048,"As Sulayyil","As Sulayyil",20.46067000,45.57792000,"SA",24097,0,"Asia/Riyadh"
108121,"Sājir","Sajir",25.18251000,44.59964000,"SA",11717,0,"Asia/Riyadh"
108142,"As Saffānīyah","As Saffaniyah",27.97083000,48.73000000,"SA",7014,0,"Asia/Riyadh"
108410,"Riyadh","Riyadh",24.68773000,46.72185000,"SA",4205961,0,"Asia/Riyadh"
108435,"Ar Rass","Ar Rass",25.86944000,43.49730000,"SA",81728,0,"Asia/Riyadh"
108512,"Arar","Arar",30.97531000,41.03808000,"SA",148540,0,"Asia/Riyadh"
108617,"An Nimāş","An Nimas",19.14547000,42.12009000,"SA",24153,0,"Asia/Riyadh"
108648,"Qurayyat","Qurayyat",31.33176000,37.34282000,"SA",102903,0,"Asia/Riyadh"
108773,"Al Wajh","Al Wajh",26.24551000,36.45249000,"SA",26636,0,"Asia/Riyadh"
108841,"Al-`Ula","Al-`Ula",26.60853000,37.92316000,"SA",32413,0,"Asia/Riyadh"
108890,"Al Qurayn","Al Qurayn",25.48333000,49.60000000,"SA",12013,0,"Asia/Riyadh"
108918,"Qaisumah","Qaisumah",28.31117000,46.12729000,"SA",20685,0,"Asia/Riyadh"
108927,"Al Qaţīf","Al Qatif",26.52080000,50.02452000,"SA",98259,0,"Asia/Riyadh"
108957,"Al Qārah","Al Qarah",25.41667000,49.66667000,"SA",9106,0,"Asia/Riyadh"
109008,"Al Muţayrifī","Al Mutayrifi",25.47879000,49.55763000,"SA",5962,0,"Asia/Riyadh"
109059,"Al Munayzilah","Al Munayzilah",25.38333000,49.66667000,"SA",16296,0,"Asia/Riyadh"
109101,"Al Mubarraz","Al Mubarraz",25.41000000,49.58083000,"SA",290802,0,"Asia/Riyadh"
109118,"Al Mindak","Al Mindak",20.15880000,41.28337000,"SA",9218,0,"Asia/Riyadh"
109131,"Al Mithnab","Al Mithnab",25.86012000,44.22228000,"SA",60870,0,"Asia/Riyadh"
109165,"Al Markaz","Al Markaz",25.40000000,49.73333000,"SA",6464,0,"Asia/Riyadh"
109223,"Medina","Medina",24.46861000,39.61417000,"SA",1300000,0,"Asia/Riyadh"
109323,"Khobar","Khobar",26.27944000,50.20833000,"SA",165799,0,"Asia/Riyadh"
109380,"Al Khafjī","Al Khafji",28.43905000,48.49132000,"SA",54857,0,"Asia/Riyadh"
109417,"Al Jumūm","Al Jumum",21.61694000,39.69806000,"SA",22207,0,"Asia/Riyadh"
109435,"Al Jubayl","Al Jubayl",27.01122000,49.65825000,"SA",237274,0,"Asia/Riyadh"
109436,"Al Jubayl","Al Jubayl",25.40000000,49.65000000,"SA",9108,0,"Asia/Riyadh"
109481,"Al Jarādīyah","Al Jaradiyah",16.57946000,42.91240000,"SA",7396,0,"Asia/Riyadh"
109502,"Al Jafr","Al Jafr",25.37694000,49.72361000,"SA",8715,0,"Asia/Riyadh"
109571,"Al Hufūf","Al Hufuf",25.36457000,49.56532000,"SA",293179,0,"Asia/Riyadh"
109878,"Al Bukayrīyah","Al Bukayriyah",26.14422000,43.65933000,"SA",25153,0,"Asia/Riyadh"
109915,"Al Baţţālīyah","Al Battaliyah",25.43333000,49.63333000,"SA",16606,0,"Asia/Riyadh"
109953,"Al Bahah","Al Bahah",20.01288000,41.46767000,"SA",88419,0,"Asia/Riyadh"
110031,"Al Arţāwīyah","Al Artawiyah",26.50526000,45.34437000,"SA",9152,0,"Asia/Riyadh"
110107,"Al Awjām","Al Awjam",26.56324000,49.94331000,"SA",11460,0,"Asia/Riyadh"
110250,"‘Afīf","`Afif",23.90650000,42.91724000,"SA",40648,0,"Asia/Riyadh"
110314,"Ad Dilam","Ad Dilam",23.99104000,47.16181000,"SA",35371,0,"Asia/Riyadh"
110325,"Ad Dawādimī","Ad Dawadimi",24.50772000,44.39237000,"SA",54474,0,"Asia/Riyadh"
110328,"Ad Darb","Ad Darb",17.72285000,42.25261000,"SA",5378,0,"Asia/Riyadh"
110336,"Dammam","Dammam",26.43442000,50.10326000,"SA",768602,0,"Asia/Riyadh"
110619,"Abū ‘Arīsh","Abu `Arish",16.96887000,42.83251000,"SA",49171,0,"Asia/Riyadh"
110690,"Abha","Abha",18.21639000,42.50528000,"SA",210886,0,"Asia/Riyadh"
110831,"Āzādshahr","Azadshahr",37.08641000,55.17222000,"IR",47590,0,"Asia/Tehran"
111421,"Zarand","Zarand",30.81271000,56.56399000,"IR",58983,0,"Asia/Tehran"
111453,"Zanjān","Zanjan",36.67642000,48.49628000,"IR",357471,0,"Asia/Tehran"
111822,"Yazd","Yazd",31.89722000,54.36750000,"IR",477905,0,"Asia/Tehran"
112214,"Varāmīn","Varamin",35.32420000,51.64570000,"IR",179603,0,"Asia/Tehran"
112646,"Torbat-e Ḩeydarīyeh","Torbat-e Heydariyeh",35.27401000,59.21949000,"IR",125633,0,"Asia/Tehran"
112656,"Tonekābon","Tonekabon",36.81626000,50.87376000,"IR",37501,0,"Asia/Tehran"
112931,"Tehran","Tehran",35.69439000,51.42151000,"IR",7153309,0,"Asia/Tehran"
113343,"Hashtpar","Hashtpar",37.79658000,48.90521000,"IR",45305,0,"Asia/Tehran"
113491,"Tākestān","Takestan",36.06960000,49.69590000,"IR",71499,0,"Asia/Tehran"
113508,"Takāb","Takab",36.40090000,47.11330000,"IR",51541,0,"Asia/Tehran"
113632,"Taft","Taft",31.74384000,54.20278000,"IR",19394,0,"Asia/Tehran"
113636,"Tafresh","Tafresh",34.69307000,50.01601000,"IR",14399,0,"Asia/Tehran"
113646,"Tabriz","Tabriz",38.08000000,46.29190000,"IR",1424641,0,"Asia/Tehran"
113659,"Tabas","Tabas",33.59586000,56.92437000,"IR",49993,0,"Asia/Tehran"
114049,"Sonqor","Sonqor",34.78187000,47.59945000,"IR",43174,0,"Asia/Tehran"
114259,"Sirjan","Sirjan",29.45137000,55.68090000,"IR",207645,0,"Asia/Tehran"
114584,"Shūshtar","Shushtar",32.04972000,48.84843000,"IR",77507,0,"Asia/Tehran"
114593,"Shūsh","Shush",32.19420000,48.24360000,"IR",52284,0,"Asia/Tehran"
114930,"Shīrvān","Shirvan",37.39669000,57.92952000,"IR",82790,0,"Asia/Tehran"
115019,"Shiraz","Shiraz",29.61031000,52.53113000,"IR",1249942,0,"Asia/Tehran"
115388,"Sharīfābād","Sharifabad",35.42750000,51.78528000,"IR",8870,0,"Asia/Tehran"
115770,"Shahr-e Kord","Shahr-e Kord",32.32556000,50.86444000,"IR",129153,0,"Asia/Tehran"
115781,"Shahr-e Bābak","Shahr-e Babak",30.11650000,55.11860000,"IR",52409,0,"Asia/Tehran"
116102,"Shādegān","Shadegan",30.64924000,48.66497000,"IR",37220,0,"Asia/Tehran"
116402,"Semnān","Semnan",35.57691000,53.39205000,"IR",124826,0,"Asia/Tehran"
116406,"Semīrom","Semirom",31.41667000,51.56667000,"IR",27220,0,"Asia/Tehran"
116667,"Sāveh","Saveh",35.02130000,50.35660000,"IR",175533,0,"Asia/Tehran"
116996,"Sari","Sari",36.56332000,53.06009000,"IR",255396,0,"Asia/Tehran"
117392,"Saqqez","Saqqez",36.24992000,46.27350000,"IR",151237,0,"Asia/Tehran"
117574,"Sanandaj","Sanandaj",35.31495000,46.99883000,"IR",349176,0,"Asia/Tehran"
117656,"Salmās","Salmas",38.19730000,44.76530000,"IR",81606,0,"Asia/Tehran"
117793,"Shāhīn Dezh","Shahin Dezh",36.67930000,46.56690000,"IR",41442,0,"Asia/Tehran"
118063,"Sabzevar","Sabzevar",36.21260000,57.68191000,"IR",226183,0,"Asia/Tehran"
118191,"Rūdsar","Rudsar",37.13761000,50.28800000,"IR",47502,0,"Asia/Tehran"
118367,"Robāţ Karīm","Robat Karim",35.48460000,51.08290000,"IR",62753,0,"Asia/Tehran"
118704,"Rāvar","Ravar",31.26562000,56.80545000,"IR",40167,0,"Asia/Tehran"
118743,"Rasht","Rasht",37.27611000,49.58862000,"IR",594590,0,"Asia/Tehran"
118805,"Rāmshīr","Ramshir",30.89315000,49.40787000,"IR",19454,0,"Asia/Tehran"
118826,"Rāmhormoz","Ramhormoz",31.27997000,49.60351000,"IR",38821,0,"Asia/Tehran"
118994,"Rafsanjān","Rafsanjan",30.40670000,55.99390000,"IR",147680,0,"Asia/Tehran"
119115,"Qūchān","Quchan",37.10600000,58.50955000,"IR",111752,0,"Asia/Tehran"
119161,"Qorveh","Qorveh",35.16640000,47.80564000,"IR",87953,0,"Asia/Tehran"
119208,"Qom","Qom",34.64010000,50.87640000,"IR",900000,0,"Asia/Tehran"
119374,"Qeshm","Qeshm",26.94920000,56.26910000,"IR",25000,0,"Asia/Tehran"
119505,"Qazvin","Qazvin",36.26877000,50.00410000,"IR",333635,0,"Asia/Tehran"
119730,"Qarah Ẕīā’ od Dīn","Qarah Zia' od Din",38.89150000,45.02550000,"IR",31947,0,"Asia/Tehran"
120678,"Farrokh Shahr","Farrokh Shahr",32.27174000,50.98008000,"IR",32391,0,"Asia/Tehran"
120694,"Qā’en","Qa'en",33.72654000,59.18439000,"IR",40157,0,"Asia/Tehran"
120931,"Sarpol-e Z̄ahāb","Sarpol-e Zahab",34.46109000,45.86264000,"IR",51611,0,"Asia/Tehran"
120972,"Pīshvā","Pishva",35.30800000,51.72670000,"IR",53856,0,"Asia/Tehran"
121110,"Piranshahr","Piranshahr",36.70100000,45.14130000,"IR",61973,0,"Asia/Tehran"
121240,"Pāveh","Paveh",35.04340000,46.35650000,"IR",17779,0,"Asia/Tehran"
121380,"Pārsābād","Parsabad",39.64820000,47.91740000,"IR",101661,0,"Asia/Tehran"
121795,"Oshnavīyeh","Oshnaviyeh",37.03970000,45.09830000,"IR",50661,0,"Asia/Tehran"
121801,"Orūmīyeh","Orumiyeh",37.55274000,45.07605000,"IR",577307,0,"Asia/Tehran"
121861,"Omīdīyeh","Omidiyeh",30.75972000,49.70500000,"IR",46983,0,"Asia/Tehran"
121925,"Nūrābād","Nurabad",30.11405000,51.52174000,"IR",64041,0,"Asia/Tehran"
121959,"Nowshahr","Nowshahr",36.64852000,51.49621000,"IR",40000,0,"Asia/Tehran"
122285,"Nīshābūr","Nishabur",36.21329000,58.79575000,"IR",220929,0,"Asia/Tehran"
122289,"Neyrīz","Neyriz",29.19880000,54.32780000,"IR",45506,0,"Asia/Tehran"
122397,"Nekā","Neka",36.65079000,53.29905000,"IR",48847,0,"Asia/Tehran"
122438,"Naz̧arābād","Nazarabad",35.95411000,50.60607000,"IR",213388,0,"Asia/Tehran"
122560,"Nashtārūd","Nashtarud",36.75090000,51.02362000,"IR",5837,0,"Asia/Tehran"
122698,"Naqadeh","Naqadeh",36.95530000,45.38800000,"IR",73528,0,"Asia/Tehran"
122915,"Nahāvand","Nahavand",34.19088000,48.37446000,"IR",76250,0,"Asia/Tehran"
123485,"Mohr","Mohr",27.55520000,52.88360000,"IR",35000,0,"Asia/Tehran"
123941,"Mīnāb","Minab",27.13104000,57.08716000,"IR",70790,0,"Asia/Tehran"
124085,"Mīāndoāb","Miandoab",36.96667000,46.10961000,"IR",132819,0,"Asia/Tehran"
124193,"Meybod","Meybod",32.25014000,54.01658000,"IR",51874,0,"Asia/Tehran"
124274,"Mahrīz","Mahriz",31.58428000,54.44280000,"IR",36720,0,"Asia/Tehran"
124291,"Mehrān","Mehran",33.12220000,46.16460000,"IR",11831,0,"Asia/Tehran"
124620,"Masjed Soleymān","Masjed Soleyman",31.93640000,49.30390000,"IR",111510,0,"Asia/Tehran"
124647,"Bardsīr","Bardsir",29.92266000,56.57433000,"IR",37192,0,"Asia/Tehran"
124665,"Mashhad","Mashhad",36.31559000,59.56796000,"IR",2307177,0,"Asia/Tehran"
124778,"Marīvān","Marivan",35.51829000,46.18298000,"IR",91664,0,"Asia/Tehran"
124862,"Marand","Marand",38.43290000,45.77490000,"IR",124191,0,"Asia/Tehran"
125185,"Malāyer","Malayer",34.30158000,48.82166000,"IR",176573,0,"Asia/Tehran"
125188,"Malārd","Malard",35.66590000,50.97670000,"IR",56745,0,"Asia/Tehran"
125446,"Mahābād","Mahabad",36.76310000,45.72220000,"IR",162434,0,"Asia/Tehran"
125897,"Langarūd","Langarud",37.19701000,50.15351000,"IR",68148,0,"Asia/Tehran"
126409,"Kūhdasht","Kuhdasht",33.53335000,47.60999000,"IR",100208,0,"Asia/Tehran"
126914,"Kīsh","Kish",26.55778000,54.01944000,"IR",20922,0,"Asia/Tehran"
126972,"Khvoy","Khvoy",38.55030000,44.95210000,"IR",175370,0,"Asia/Tehran"
127033,"Khvānsār","Khvansar",33.22052000,50.31497000,"IR",21146,0,"Asia/Tehran"
127319,"Khorramshahr","Khorramshahr",30.44079000,48.18428000,"IR",330606,0,"Asia/Tehran"
127349,"Khorramabad","Khorramabad",33.48778000,48.35583000,"IR",329825,0,"Asia/Tehran"
127403,"Khomeyn","Khomeyn",33.64225000,50.07890000,"IR",77425,0,"Asia/Tehran"
128008,"Khalkhāl","Khalkhal",37.61890000,48.52580000,"IR",51024,0,"Asia/Tehran"
128226,"Kermanshah","Kermanshah",34.31417000,47.06500000,"IR",621100,0,"Asia/Tehran"
128234,"Kerman","Kerman",30.28321000,57.07879000,"IR",577514,0,"Asia/Tehran"
128321,"Kāzerūn","Kazerun",29.61949000,51.65415000,"IR",94511,0,"Asia/Tehran"
128447,"Kāshmar","Kashmar",35.23831000,58.46558000,"IR",96151,0,"Asia/Tehran"
128747,"Karaj","Karaj",35.83266000,50.99155000,"IR",1448075,0,"Asia/Tehran"
128831,"Kangāvar","Kangavar",34.50430000,47.96530000,"IR",53414,0,"Asia/Tehran"
128905,"Kāmyārān","Kamyaran",34.79560000,46.93550000,"IR",61642,0,"Asia/Tehran"
129512,"Kalāleh","Kalaleh",37.37899000,55.49300000,"IR",33700,0,"Asia/Tehran"
129933,"Jūybār","Juybar",36.64115000,52.91244000,"IR",28404,0,"Asia/Tehran"
130216,"Khārk","Khark",29.26139000,50.33056000,"IR",8196,0,"Asia/Tehran"
130245,"Javānrūd","Javanrud",34.79611000,46.51722000,"IR",38657,0,"Asia/Tehran"
130802,"Īlām","Ilam",33.63740000,46.42270000,"IR",140940,0,"Asia/Tehran"
131962,"Harsīn","Harsin",34.27210000,47.58610000,"IR",57647,0,"Asia/Tehran"
132144,"Hamadān","Hamadan",34.79922000,48.51456000,"IR",528256,0,"Asia/Tehran"
132892,"Gorgān","Gorgan",36.84270000,54.44391000,"IR",244937,0,"Asia/Tehran"
132938,"Gonbad-e Kāvūs","Gonbad-e Kavus",37.25004000,55.16721000,"IR",131416,0,"Asia/Tehran"
132961,"Gonābād","Gonabad",34.35287000,58.68365000,"IR",43465,0,"Asia/Tehran"
133037,"Golpāyegān","Golpayegan",33.45370000,50.28836000,"IR",44916,0,"Asia/Tehran"
133595,"Gerāsh","Gerash",27.66966000,54.13586000,"IR",25316,0,"Asia/Tehran"
134217,"Bandar-e Ganāveh","Bandar-e Ganaveh",29.57910000,50.51700000,"IR",52750,0,"Asia/Tehran"
134441,"Fūman","Fuman",37.22400000,49.31250000,"IR",27763,0,"Asia/Tehran"
134518,"Fīrūzābād","Firuzabad",28.84380000,52.57070000,"IR",66558,0,"Asia/Tehran"
134601,"Fareydūnshahr","Fareydunshahr",32.94098000,50.12100000,"IR",11562,0,"Asia/Tehran"
134602,"Fereydūnkenār","Fereydunkenar",36.68642000,52.52255000,"IR",34097,0,"Asia/Tehran"
134721,"Fasā","Fasa",28.93830000,53.64820000,"IR",98061,0,"Asia/Tehran"
134762,"Fārsān","Farsan",32.25694000,50.56095000,"IR",25071,0,"Asia/Tehran"
135298,"Esfarāyen","Esfarayen",37.07645000,57.51009000,"IR",59678,0,"Asia/Tehran"
135423,"Shahrud","Shahrud",36.41819000,54.97628000,"IR",131889,0,"Asia/Tehran"
136014,"Dogonbadan","Dogonbadan",30.35860000,50.79810000,"IR",94638,0,"Asia/Tehran"
136399,"Delījān","Delijan",33.99050000,50.68380000,"IR",33508,0,"Asia/Tehran"
136702,"Dehlorān","Dehloran",32.69410000,47.26790000,"IR",46002,0,"Asia/Tehran"
136987,"Dehdasht","Dehdasht",30.79490000,50.56457000,"IR",69726,0,"Asia/Tehran"
137268,"Sūsangerd","Susangerd",31.56350000,48.18958000,"IR",41443,0,"Asia/Tehran"
137436,"Darreh Shahr","Darreh Shahr",33.14447000,47.37990000,"IR",24961,667,"Asia/Tehran"
137956,"Dārāb","Darab",28.75194000,54.54444000,"IR",63319,0,"Asia/Tehran"
138025,"Dāmghān","Damghan",36.16790000,54.34292000,"IR",67694,0,"Asia/Tehran"
138042,"Damāvand","Damavand",35.71842000,52.06958000,"IR",29144,0,"Asia/Tehran"
138742,"Chenārān","Chenaran",36.64546000,59.12123000,"IR",46940,0,"Asia/Tehran"
139223,"Chālūs","Chalus",36.65500000,51.42040000,"IR",69638,0,"Asia/Tehran"
139817,"Bandar-e Būshehr","Bandar-e Bushehr",28.96840000,50.83850000,"IR",165377,0,"Asia/Tehran"
139889,"Būkān","Bukan",36.52100000,46.20890000,"IR",213331,0,"Asia/Tehran"
140044,"Borūjerd","Borujerd",33.89730000,48.75160000,"IR",251958,0,"Asia/Tehran"
140046,"Borūjen","Borujen",31.96523000,51.28730000,"IR",52654,0,"Asia/Tehran"
140097,"Borāzjān","Borazjan",29.26990000,51.21880000,"IR",86059,0,"Asia/Tehran"
140380,"Bojnūrd","Bojnurd",37.47473000,57.32903000,"IR",192041,0,"Asia/Tehran"
140463,"Bīrjand","Birjand",32.86628000,59.22114000,"IR",196982,0,"Asia/Tehran"
140521,"Bījār","Bijar",35.86680000,47.60506000,"IR",53871,0,"Asia/Tehran"
140889,"Bonāb","Bonab",37.34040000,46.05610000,"IR",80359,0,"Asia/Tehran"
140918,"Behshahr","Behshahr",36.69235000,53.55262000,"IR",93500,0,"Asia/Tehran"
140951,"Behbahān","Behbahan",30.59590000,50.24170000,"IR",79327,0,"Asia/Tehran"
141584,"Bāneh","Baneh",35.99750000,45.88530000,"IR",104799,0,"Asia/Tehran"
141665,"Bandar-e Lengeh","Bandar-e Lengeh",26.55792000,54.88067000,"IR",22768,0,"Asia/Tehran"
141679,"Bandar-e Anzalī","Bandar-e Anzali",37.47318000,49.45785000,"IR",110826,0,"Asia/Tehran"
141681,"Bandar Abbas","Bandar Abbas",27.18650000,56.28080000,"IR",352173,0,"Asia/Tehran"
141736,"Bam","Bam",29.10600000,58.35700000,"IR",99268,0,"Asia/Tehran"
142000,"Bahār","Bahar",34.90720000,48.44140000,"IR",28645,0,"Asia/Tehran"
142255,"Bāfq","Bafq",31.60350000,55.40249000,"IR",31215,0,"Asia/Tehran"
142358,"Bābolsar","Babolsar",36.70251000,52.65760000,"IR",48051,0,"Asia/Tehran"
142363,"Bābol","Babol",36.55132000,52.67895000,"IR",202796,0,"Asia/Tehran"
142496,"Aznā","Azna",33.60950000,48.93070000,"IR",47482,0,"Asia/Tehran"
142554,"Hashtrūd","Hashtrud",37.47790000,47.05080000,"IR",16888,0,"Asia/Tehran"
142676,"Āstārā","Astara",38.42910000,48.87200000,"IR",39065,0,"Asia/Tehran"
142679,"Āstāneh-ye Ashrafīyeh","Astaneh-ye Ashrafiyeh",37.26318000,49.94325000,"IR",42784,0,"Asia/Tehran"
142872,"Asadābād","Asadabad",34.78241000,48.12012000,"IR",59617,0,"Asia/Tehran"
143052,"Ardestān","Ardestan",33.37610000,52.36940000,"IR",16058,0,"Asia/Tehran"
143073,"Ardakān","Ardakan",32.31001000,54.01747000,"IR",58834,0,"Asia/Tehran"
143083,"Ardabīl","Ardabil",38.24980000,48.29330000,"IR",410753,0,"Asia/Tehran"
143127,"Arāk","Arak",34.09174000,49.68916000,"IR",503647,0,"Asia/Tehran"
143534,"Āmol","Amol",36.46961000,52.35072000,"IR",199382,0,"Asia/Tehran"
143748,"Alvand","Alvand",36.31870000,49.16780000,"IR",74889,0,"Asia/Tehran"
143860,"Shahrīār","Shahriar",35.65884000,51.05775000,"IR",58849,0,"Asia/Tehran"
143921,"Alīgūdarz","Aligudarz",33.40063000,49.69490000,"IR",91041,0,"Asia/Tehran"
144269,"Aleshtar","Aleshtar",33.86419000,48.26258000,"IR",27701,0,"Asia/Tehran"
144410,"Akbarābād","Akbarabad",29.24640000,52.77930000,"IR",98342,0,"Asia/Tehran"
144443,"‘Ajab Shīr","`Ajab Shir",37.47760000,45.89430000,"IR",29675,0,"Asia/Tehran"
144448,"Ahvaz","Ahvaz",31.31901000,48.68420000,"IR",841145,0,"Asia/Tehran"
144616,"Ahar","Ahar",38.47740000,47.06990000,"IR",94348,0,"Asia/Tehran"
144696,"Aghajari","Aghajari",30.70060000,49.83150000,"IR",21785,0,"Asia/Tehran"
144794,"Ābyek","Abyek",36.06667000,50.55000000,"IR",55128,0,"Asia/Tehran"
145034,"Abhar","Abhar",36.14680000,49.21800000,"IR",69889,0,"Asia/Tehran"
145233,"Ābdānān","Abdanan",32.99260000,47.41980000,"IR",19360,0,"Asia/Tehran"
145449,"Ābādeh","Abadeh",31.16080000,52.65060000,"IR",56988,0,"Asia/Tehran"
145459,"Abadan","Abadan",30.33920000,48.30430000,"IR",370180,0,"Asia/Tehran"
145531,"Saurimo","Saurimo",-9.66078000,20.39155000,"AO",40498,0,"Africa/Luanda"
145724,"Lucapa","Lucapa",-8.41915000,20.74466000,"AO",20115,0,"Africa/Luanda"
145952,"Ýpsonas","Ypsonas",34.68797000,32.96191000,"CY",7348,0,"Asia/Nicosia"
145964,"Géri","Geri",35.10560000,33.41977000,"CY",7639,0,"Asia/Nicosia"
145981,"Tséri","Tseri",35.07307000,33.32344000,"CY",5498,0,"Asia/Nicosia"
146105,"Rizokárpaso","Rizokarpaso",35.59719000,34.37916000,"CY",5215,0,"Asia/Nicosia"
146189,"Pérgamos","Pergamos",35.04167000,33.70833000,"CY",15000,0,"Asia/Nicosia"
146209,"Paralímni","Paralimni",35.03945000,33.98181000,"CY",11836,0,"Asia/Nicosia"
146214,"Paphos","Paphos",34.77679000,32.42451000,"CY",35961,0,"Asia/Nicosia"
146268,"Nicosia","Nicosia",35.17531000,33.36420000,"CY",200452,0,"Asia/Nicosia"
146286,"Mórfou","Morfou",35.19869000,32.99338000,"CY",14833,0,"Asia/Nicosia"
146371,"Livádia","Livadia",34.95118000,33.62658000,"CY",5329,0,"Asia/Nicosia"
146384,"Limassol","Limassol",34.68406000,33.03794000,"CY",154000,0,"Asia/Nicosia"
146392,"Léfka","Lefka",35.11199000,32.84997000,"CY",7835,0,"Asia/Nicosia"
146400,"Larnaca","Larnaca",34.92291000,33.62330000,"CY",72000,0,"Asia/Nicosia"
146403,"Lápithos","Lapithos",35.33823000,33.17368000,"CY",5215,0,"Asia/Nicosia"
146412,"Kyrenia","Kyrenia",35.33634000,33.31729000,"CY",26701,0,"Asia/Nicosia"
146617,"Famagusta","Famagusta",35.12054000,33.93894000,"CY",42526,0,"Asia/Nicosia"
146654,"Dhromolaxia","Dhromolaxia",34.87551000,33.58684000,"CY",5240,0,"Asia/Nicosia"
146661,"Derýneia","Deryneia",35.06484000,33.96083000,"CY",5161,0,"Asia/Nicosia"
146666,"Dáli","Dali",35.02294000,33.42195000,"CY",6085,0,"Asia/Nicosia"
146796,"Aradíppou","Aradippou",34.95151000,33.59199000,"CY",13349,0,"Asia/Nicosia"
146858,"Sharur City","Sharur City",39.55298000,44.97993000,"AZ",7100,0,"Asia/Baku"
146862,"Prishibinskoye","Prishibinskoye",39.11817000,48.59255000,"AZ",13340,0,"Asia/Baku"
146901,"Zangilan","Zangilan",39.08840000,46.65130000,"AZ",7483,0,"Asia/Baku"
146958,"Yaycı","Yayci",38.94052000,45.73244000,"AZ",8500,0,"Asia/Baku"
146961,"Yardımlı","Yardimli",38.90771000,48.24052000,"AZ",4004,0,"Asia/Baku"
146969,"Novyy Karanlug","Novyy Karanlug",39.79546000,47.10989000,"AZ",5079,0,"Asia/Baku"
146970,"Xankandi","Xankandi",39.81770000,46.75280000,"AZ",53100,0,"Asia/Baku"
147059,"Əhmədbəyli","Ahmadbayli",39.87867000,48.39901000,"AZ",17242,0,"Asia/Baku"
147105,"Shushi","Shushi",39.76006000,46.74989000,"AZ",18662,0,"Asia/Baku"
147271,"Salyan","Salyan",39.59621000,48.98479000,"AZ",36555,0,"Asia/Baku"
147288,"Saatlı","Saatli",39.93214000,48.36892000,"AZ",87000,0,"Asia/Baku"
147305,"Qubadlı","Qubadli",39.34441000,46.58183000,"AZ",6890,0,"Asia/Baku"
147368,"Ordubad","Ordubad",38.90961000,46.02274000,"AZ",9781,0,"Asia/Baku"
147425,"Neftçala","Neftcala",39.37680000,49.24700000,"AZ",18661,0,"Asia/Baku"
147429,"Nakhchivan","Nakhchivan",39.20889000,45.41222000,"AZ",64754,0,"Asia/Baku"
147504,"Mincivan","Mincivan",39.03058000,46.72140000,"AZ",6353,0,"Asia/Baku"
147552,"Masally","Masally",39.03532000,48.66540000,"AZ",9604,0,"Asia/Baku"
147611,"Lerik","Lerik",38.77388000,48.41497000,"AZ",7094,0,"Asia/Baku"
147622,"Lankaran","Lankaran",38.75428000,48.85062000,"AZ",240300,0,"Asia/Baku"
147625,"Laçın","Lacin",39.59881000,46.55045000,"AZ",2300,0,"Asia/Baku"
147774,"Xocalı","Xocali",39.91297000,46.79028000,"AZ",5810,0,"Asia/Baku"
147982,"Imishli","Imishli",39.87095000,48.05995000,"AZ",34178,0,"Asia/Baku"
148106,"Fizuli","Fizuli",39.60094000,47.14529000,"AZ",26765,0,"Asia/Baku"
148141,"Jebrail","Jebrail",39.39917000,47.02835000,"AZ",8396,0,"Asia/Baku"
148177,"Dünyamalılar","Dunyamalilar",39.77278000,47.75889000,"AZ",5968,0,"Asia/Baku"
148251,"Culfa","Culfa",38.95397000,45.62961000,"AZ",10820,0,"Asia/Baku"
148290,"Dzhalilabad","Dzhalilabad",39.20963000,48.49186000,"AZ",36259,0,"Asia/Baku"
148291,"Cahri","Cahri",39.34837000,45.41557000,"AZ",8200,0,"Asia/Baku"
148323,"Boradigah","Boradigah",38.93013000,48.70920000,"AZ",5904,0,"Asia/Baku"
148340,"Pushkino","Pushkino",39.45833000,48.54500000,"AZ",18182,0,"Asia/Baku"
148354,"Beylagan","Beylagan",39.77556000,47.61861000,"AZ",15599,0,"Asia/Baku"
148375,"Severo-Vostotchnyi Bank","Severo-Vostotchnyi Bank",39.41117000,49.24792000,"AZ",7075,0,"Asia/Baku"
148445,"Astara","Astara",38.45598000,48.87498000,"AZ",15190,0,"Asia/Baku"
148565,"Şirvan","Sirvan",39.93778000,48.92900000,"AZ",70220,0,"Asia/Baku"
148619,"Ağdam","Agdam",39.99096000,46.92736000,"AZ",39451,0,"Asia/Baku"
148730,"Zanzibar","Zanzibar",-6.16394000,39.19793000,"TZ",403658,0,"Africa/Dar_es_Salaam"
148842,"Wete","Wete",-5.05589000,39.72938000,"TZ",26450,0,"Africa/Dar_es_Salaam"
148942,"Vwawa","Vwawa",-9.11667000,32.93333000,"TZ",40145,0,"Africa/Dar_es_Salaam"
148987,"Vikindu","Vikindu",-7.00667000,39.29849000,"TZ",23307,0,"Africa/Dar_es_Salaam"
149027,"Uyovu","Uyovu",-3.28333000,31.52583000,"TZ",60849,0,"Africa/Dar_es_Salaam"
149050,"Uvinza","Uvinza",-5.10361000,30.39111000,"TZ",24650,0,"Africa/Dar_es_Salaam"
149070,"Utete","Utete",-7.98598000,38.75795000,"TZ",11888,0,"Africa/Dar_es_Salaam"
149114,"Usoke","Usoke",-5.16667000,32.35000000,"TZ",7295,0,"Africa/Dar_es_Salaam"
149129,"Ushirombo","Ushirombo",-3.49194000,31.96389000,"TZ",95052,0,"Africa/Dar_es_Salaam"
149132,"Usevia","Usevia",-7.10000000,31.23333000,"TZ",17742,0,"Africa/Dar_es_Salaam"
149151,"Usagara","Usagara",-2.68333000,33.00000000,"TZ",15514,0,"Africa/Dar_es_Salaam"
149155,"Usa River","Usa River",-3.36667000,36.85000000,"TZ",18726,0,"Africa/Dar_es_Salaam"
149172,"Urambo","Urambo",-5.06667000,32.05000000,"TZ",23724,0,"Africa/Dar_es_Salaam"
149239,"Ulenje","Ulenje",-8.93333000,33.68333000,"TZ",12219,0,"Africa/Dar_es_Salaam"
149402,"Tunduma","Tunduma",-9.30000000,32.76667000,"TZ",36556,0,"Africa/Dar_es_Salaam"
149418,"Tumbi","Tumbi",-5.06667000,32.73333000,"TZ",32900,0,"Africa/Dar_es_Salaam"
149437,"Tukuyu","Tukuyu",-9.25000000,33.65000000,"TZ",28398,0,"Africa/Dar_es_Salaam"
149512,"Tinde","Tinde",-3.88333000,33.20000000,"TZ",22082,0,"Africa/Dar_es_Salaam"
149581,"Tarime","Tarime",-1.35000000,34.36667000,"TZ",33094,0,"Africa/Dar_es_Salaam"
149606,"Tanga","Tanga",-5.06893000,39.09875000,"TZ",224876,0,"Africa/Dar_es_Salaam"
149658,"Tabora","Tabora",-5.01622000,32.82663000,"TZ",145292,0,"Africa/Dar_es_Salaam"
149703,"Sumbawanga","Sumbawanga",-7.96667000,31.61667000,"TZ",89161,0,"Africa/Dar_es_Salaam"
149768,"Soni","Soni",-4.85000000,38.36667000,"TZ",12402,0,"Africa/Dar_es_Salaam"
149775,"Songwa","Songwa",-3.51667000,33.51667000,"TZ",23618,0,"Africa/Dar_es_Salaam"
149792,"Somanda","Somanda",-3.36667000,33.95000000,"TZ",33932,0,"Africa/Dar_es_Salaam"
149812,"Sokoni","Sokoni",-6.43333000,39.55000000,"TZ",25821,0,"Africa/Dar_es_Salaam"
149854,"Sirari","Sirari",-1.25367000,34.47596000,"TZ",24317,0,"Africa/Dar_es_Salaam"
149879,"Singida","Singida",-4.81629000,34.74358000,"TZ",62432,0,"Africa/Dar_es_Salaam"
149929,"Sikonge","Sikonge",-5.63333000,32.76667000,"TZ",27113,0,"Africa/Dar_es_Salaam"
150006,"Shinyanga","Shinyanga",-3.66393000,33.42118000,"TZ",107362,0,"Africa/Dar_es_Salaam"
150037,"Shelui","Shelui",-4.36667000,34.20000000,"TZ",24817,0,"Africa/Dar_es_Salaam"
150099,"Sepuka","Sepuka",-4.75000000,34.53333000,"TZ",25657,0,"Africa/Dar_es_Salaam"
150276,"Same","Same",-4.06667000,37.73333000,"TZ",17455,0,"Africa/Dar_es_Salaam"
150436,"Rulenge","Rulenge",-2.71750000,30.63250000,"TZ",22069,0,"Africa/Dar_es_Salaam"
150453,"Rujewa","Rujewa",-8.70000000,34.38333000,"TZ",29228,0,"Africa/Dar_es_Salaam"
150634,"Puma","Puma",-5.00000000,34.73333000,"TZ",17092,0,"Africa/Dar_es_Salaam"
150689,"Poli","Poli",-3.33333000,36.80000000,"TZ",9568,0,"Africa/Dar_es_Salaam"
150793,"Pangani","Pangani",-5.42526000,38.97473000,"TZ",8343,0,"Africa/Dar_es_Salaam"
150885,"Old Shinyanga","Old Shinyanga",-3.55000000,33.40000000,"TZ",23747,0,"Africa/Dar_es_Salaam"
150930,"Nzega","Nzega",-4.21667000,33.18333000,"TZ",26584,0,"Africa/Dar_es_Salaam"
151062,"Nyanguge","Nyanguge",-2.55000000,33.20000000,"TZ",10746,0,"Africa/Dar_es_Salaam"
151108,"Nyamuswa","Nyamuswa",-1.90000000,34.01667000,"TZ",16507,0,"Africa/Dar_es_Salaam"
151211,"Nyalikungu","Nyalikungu",-3.18333000,33.78333000,"TZ",24648,0,"Africa/Dar_es_Salaam"
151262,"Nyakahanga","Nyakahanga",-1.60333000,31.14139000,"TZ",14611,0,"Africa/Dar_es_Salaam"
151266,"Nyakabindi","Nyakabindi",-2.63333000,33.98333000,"TZ",18428,0,"Africa/Dar_es_Salaam"
151363,"Nsunga","Nsunga",-1.14389000,31.39472000,"TZ",20049,0,"Africa/Dar_es_Salaam"
151373,"Nshamba","Nshamba",-1.79833000,31.55111000,"TZ",19815,0,"Africa/Dar_es_Salaam"
151424,"Nkove","Nkove",-7.95000000,30.85000000,"TZ",5389,0,"Africa/Dar_es_Salaam"
151445,"Nkoaranga","Nkoaranga",-3.33333000,36.80000000,"TZ",14738,0,"Africa/Dar_es_Salaam"
151479,"Njombe","Njombe",-9.33333000,34.76667000,"TZ",46724,0,"Africa/Dar_es_Salaam"
151567,"Nguruka","Nguruka",-5.10917000,31.04194000,"TZ",39135,0,"Africa/Dar_es_Salaam"
151599,"Ngudu","Ngudu",-2.96667000,33.33333000,"TZ",22658,0,"Africa/Dar_es_Salaam"
151610,"Ngorongoro","Ngorongoro",-3.23973000,35.48747000,"TZ",10836,0,"Africa/Dar_es_Salaam"
151678,"Ngerengere","Ngerengere",-6.75000000,38.11667000,"TZ",17181,0,"Africa/Dar_es_Salaam"
151711,"Ngara","Ngara",-2.51222000,30.65583000,"TZ",16890,0,"Africa/Dar_es_Salaam"
151775,"Ndungu","Ndungu",-4.36667000,38.05000000,"TZ",14545,0,"Africa/Dar_es_Salaam"
151872,"Ndago","Ndago",-4.60000000,34.35000000,"TZ",13012,0,"Africa/Dar_es_Salaam"
151920,"Nansio","Nansio",-2.13333000,33.05000000,"TZ",6437,0,"Africa/Dar_es_Salaam"
151929,"Nangwa","Nangwa",-4.46667000,35.45000000,"TZ",18595,0,"Africa/Dar_es_Salaam"
151986,"Namanyere","Namanyere",-7.51667000,31.05000000,"TZ",28218,0,"Africa/Dar_es_Salaam"
151988,"Namanga","Namanga",-2.55116000,36.78377000,"TZ",12048,0,"Africa/Dar_es_Salaam"
152009,"Nakatunguru","Nakatunguru",-2.11667000,33.06667000,"TZ",6064,0,"Africa/Dar_es_Salaam"
152042,"Naberera","Naberera",-4.20000000,36.93333000,"TZ",13499,0,"Africa/Dar_es_Salaam"
152169,"Mwembe","Mwembe",-4.15000000,37.85000000,"TZ",9032,0,"Africa/Dar_es_Salaam"
152183,"Mwaya","Mwaya",-9.55000000,33.95000000,"TZ",7558,0,"Africa/Dar_es_Salaam"
152224,"Mwanza","Mwanza",-2.51667000,32.90000000,"TZ",436801,0,"Africa/Dar_es_Salaam"
152265,"Mwanga","Mwanga",-4.80000000,38.20000000,"TZ",12846,0,"Africa/Dar_es_Salaam"
152376,"Mwadui","Mwadui",-3.55000000,33.60000000,"TZ",23296,0,"Africa/Dar_es_Salaam"
152403,"Mvomero","Mvomero",-6.25000000,38.66667000,"TZ",31324,0,"Africa/Dar_es_Salaam"
152451,"Musoma","Musoma",-1.50000000,33.80000000,"TZ",121119,0,"Africa/Dar_es_Salaam"
152497,"Muriti","Muriti",-1.98333000,32.91667000,"TZ",20254,0,"Africa/Dar_es_Salaam"
152546,"Mungaa","Mungaa",-4.96667000,34.88333000,"TZ",16715,0,"Africa/Dar_es_Salaam"
152570,"Muleba","Muleba",-1.83972000,31.65444000,"TZ",11555,0,"Africa/Dar_es_Salaam"
152632,"Muheza","Muheza",-5.16667000,38.78333000,"TZ",17000,0,"Africa/Dar_es_Salaam"
152663,"Mugumu","Mugumu",-1.85000000,34.70000000,"TZ",18431,0,"Africa/Dar_es_Salaam"
152689,"Mugango","Mugango",-1.68333000,33.70000000,"TZ",10550,0,"Africa/Dar_es_Salaam"
152718,"Mtwango","Mtwango",-9.01667000,34.80000000,"TZ",19040,0,"Africa/Dar_es_Salaam"
152743,"Mto wa Mbu","Mto wa Mbu",-3.35000000,35.85000000,"TZ",17754,0,"Africa/Dar_es_Salaam"
152781,"Mtinko","Mtinko",-4.55000000,34.85000000,"TZ",26725,0,"Africa/Dar_es_Salaam"
152793,"Mtimbira","Mtimbira",-8.78333000,36.35000000,"TZ",11122,0,"Africa/Dar_es_Salaam"
152877,"Mtambile","Mtambile",-5.38333000,39.70000000,"TZ",6797,0,"Africa/Dar_es_Salaam"
152933,"Msowero","Msowero",-6.53333000,37.20000000,"TZ",17861,0,"Africa/Dar_es_Salaam"
153046,"Msanga","Msanga",-6.05000000,36.03333000,"TZ",5527,0,"Africa/Dar_es_Salaam"
153094,"Mpwapwa","Mpwapwa",-6.35000000,36.48333000,"TZ",19806,0,"Africa/Dar_es_Salaam"
153176,"Mpanda","Mpanda",-6.34379000,31.06951000,"TZ",73338,0,"Africa/Dar_es_Salaam"
153209,"Moshi","Moshi",-3.35000000,37.33333000,"TZ",156959,0,"Africa/Dar_es_Salaam"
153220,"Morogoro","Morogoro",-6.82102000,37.66122000,"TZ",250902,0,"Africa/Dar_es_Salaam"
153247,"Monduli","Monduli",-3.30000000,36.45000000,"TZ",5694,0,"Africa/Dar_es_Salaam"
153352,"Mlowo","Mlowo",-9.00000000,32.98333000,"TZ",18737,0,"Africa/Dar_es_Salaam"
153384,"Mlimba","Mlimba",-8.80000000,35.81667000,"TZ",34970,0,"Africa/Dar_es_Salaam"
153408,"Mlangali","Mlangali",-9.78333000,34.51667000,"TZ",15168,0,"Africa/Dar_es_Salaam"
153412,"Mlandizi","Mlandizi",-6.70000000,38.73333000,"TZ",29394,0,"Africa/Dar_es_Salaam"
153423,"Mlalo","Mlalo",-4.93333000,38.93333000,"TZ",15576,0,"Africa/Dar_es_Salaam"
153482,"Mkuranga","Mkuranga",-7.11799000,39.20782000,"TZ",28037,0,"Africa/Dar_es_Salaam"
153585,"Mkokotoni","Mkokotoni",-5.87506000,39.25523000,"TZ",2572,0,"Africa/Dar_es_Salaam"
153709,"Mwandiga","Mwandiga",-4.83000000,29.65806000,"TZ",16822,0,"Africa/Dar_es_Salaam"
153759,"Misungwi","Misungwi",-2.85000000,33.08333000,"TZ",35530,0,"Africa/Dar_es_Salaam"
153772,"Misasi","Misasi",-3.00000000,33.08333000,"TZ",14170,0,"Africa/Dar_es_Salaam"
153871,"Mikumi","Mikumi",-7.40409000,36.98309000,"TZ",16780,0,"Africa/Dar_es_Salaam"
153955,"Micheweni","Micheweni",-4.96667000,39.83333000,"TZ",9838,0,"Africa/Dar_es_Salaam"
154002,"Mhango","Mhango",-3.28333000,32.85000000,"TZ",21553,0,"Africa/Dar_es_Salaam"
154097,"Mgandu","Mgandu",-5.95000000,34.13333000,"TZ",23718,0,"Africa/Dar_es_Salaam"
154313,"Mbulu","Mbulu",-3.85000000,35.53333000,"TZ",13430,0,"Africa/Dar_es_Salaam"
154321,"Mbuguni","Mbuguni",-3.56667000,36.95000000,"TZ",16442,0,"Africa/Dar_es_Salaam"
154380,"Mbeya","Mbeya",-8.90000000,33.45000000,"TZ",291649,0,"Africa/Dar_es_Salaam"
154470,"Mazinde","Mazinde",-4.80000000,38.21667000,"TZ",20534,0,"Africa/Dar_es_Salaam"
154566,"Matui","Matui",-4.80000000,38.25000000,"TZ",20241,0,"Africa/Dar_es_Salaam"
154576,"Matonga","Matonga",-2.38333000,34.08333000,"TZ",11828,0,"Africa/Dar_es_Salaam"
154635,"Matamba","Matamba",-8.98333000,33.96667000,"TZ",10642,0,"Africa/Dar_es_Salaam"
154638,"Matai","Matai",-8.30000000,31.51667000,"TZ",24070,0,"Africa/Dar_es_Salaam"
154648,"Maswa","Maswa",-2.68333000,33.98333000,"TZ",22025,0,"Africa/Dar_es_Salaam"
154654,"Masumbwe","Masumbwe",-3.63333000,32.18333000,"TZ",34780,0,"Africa/Dar_es_Salaam"
154666,"Masoko","Masoko",-9.33333000,33.75000000,"TZ",12720,0,"Africa/Dar_es_Salaam"
154780,"Maramba","Maramba",-5.05000000,38.61667000,"TZ",26531,0,"Africa/Dar_es_Salaam"
154915,"Maneromango","Maneromango",-7.19880000,38.78478000,"TZ",9402,0,"Africa/Dar_es_Salaam"
154995,"Malya","Malya",-2.98333000,33.51667000,"TZ",12627,0,"Africa/Dar_es_Salaam"
155016,"Malinyi","Malinyi",-8.93333000,36.13333000,"TZ",27041,0,"Africa/Dar_es_Salaam"
155052,"Malangali","Malangali",-8.56667000,34.85000000,"TZ",7112,0,"Africa/Dar_es_Salaam"
155056,"Malampaka","Malampaka",-3.13333000,33.53333000,"TZ",16916,0,"Africa/Dar_es_Salaam"
155076,"Makuyuni","Makuyuni",-4.73333000,38.10000000,"TZ",15516,0,"Africa/Dar_es_Salaam"
155093,"Makungu","Makungu",-8.73333000,35.28333000,"TZ",10291,0,"Africa/Dar_es_Salaam"
155101,"Makumbako","Makumbako",-8.85000000,34.83333000,"TZ",53003,0,"Africa/Dar_es_Salaam"
155187,"Makanya","Makanya",-4.36667000,37.83333000,"TZ",9505,0,"Africa/Dar_es_Salaam"
155244,"Majengo","Majengo",-5.15000000,38.98333000,"TZ",9874,0,"Africa/Dar_es_Salaam"
155263,"Mahonda","Mahonda",-6.45000000,39.46667000,"TZ",5569,0,"Africa/Dar_es_Salaam"
155274,"Mahenge","Mahenge",-8.68333000,36.71667000,"TZ",7768,0,"Africa/Dar_es_Salaam"
155285,"Mahanje","Mahanje",-9.93333000,35.33333000,"TZ",15009,0,"Africa/Dar_es_Salaam"
155307,"Kihangara","Kihangara",-2.58333000,33.35000000,"TZ",19082,0,"Africa/Dar_es_Salaam"
155310,"Magugu","Magugu",-4.01667000,35.76667000,"TZ",26131,0,"Africa/Dar_es_Salaam"
155321,"Magomeni","Magomeni",-6.80000000,39.25000000,"TZ",19086,0,"Africa/Dar_es_Salaam"
155322,"Magomeni","Magomeni",-5.23333000,38.11667000,"TZ",8944,0,"Africa/Dar_es_Salaam"
155334,"Magole","Magole",-6.37697000,37.37373000,"TZ",18753,0,"Africa/Dar_es_Salaam"
155405,"Mafinga","Mafinga",-7.25000000,35.06667000,"TZ",34958,0,"Africa/Dar_es_Salaam"
155514,"Mabamba","Mabamba",-3.59833000,30.50194000,"TZ",14140,0,"Africa/Dar_es_Salaam"
155515,"Mabama","Mabama",-5.13333000,32.53333000,"TZ",15320,0,"Africa/Dar_es_Salaam"
155569,"Lushoto","Lushoto",-4.78333000,38.28333000,"TZ",24197,0,"Africa/Dar_es_Salaam"
155584,"Lupiro","Lupiro",-8.38333000,36.66667000,"TZ",11430,0,"Africa/Dar_es_Salaam"
155743,"Lugoba","Lugoba",-6.45000000,38.33333000,"TZ",16902,0,"Africa/Dar_es_Salaam"
155848,"Longido","Longido",-2.73319000,36.69773000,"TZ",9403,0,"Africa/Dar_es_Salaam"
155921,"Liwale","Liwale",-9.76667000,37.93333000,"TZ",19296,0,"Africa/Dar_es_Salaam"
156025,"Lembeni","Lembeni",-3.78333000,37.61667000,"TZ",16008,0,"Africa/Dar_es_Salaam"
156080,"Lalago","Lalago",-3.45000000,33.95000000,"TZ",22551,0,"Africa/Dar_es_Salaam"
156098,"Laela","Laela",-8.56667000,32.05000000,"TZ",19185,0,"Africa/Dar_es_Salaam"
156111,"Kyela","Kyela",-9.58333000,33.85000000,"TZ",30684,0,"Africa/Dar_es_Salaam"
156124,"Kyaka","Kyaka",-1.25222000,31.42028000,"TZ",13810,0,"Africa/Dar_es_Salaam"
156312,"Kwakoa","Kwakoa",-3.76667000,37.71667000,"TZ",7514,0,"Africa/Dar_es_Salaam"
156493,"Kongwa","Kongwa",-6.20000000,36.41667000,"TZ",11840,0,"Africa/Dar_es_Salaam"
156510,"Kondoa","Kondoa",-4.90000000,35.78333000,"TZ",23518,0,"Africa/Dar_es_Salaam"
156513,"Konde","Konde",-4.95000000,39.75000000,"TZ",9530,0,"Africa/Dar_es_Salaam"
156589,"Koani","Koani",-6.13333000,39.28333000,"TZ",2211,0,"Africa/Dar_es_Salaam"
156627,"Kiwira","Kiwira",-9.17307000,33.54152000,"TZ",21342,0,"Africa/Dar_es_Salaam"
156918,"Kisiwani","Kisiwani",-4.13333000,37.95000000,"TZ",7126,0,"Africa/Dar_es_Salaam"
156963,"Kishapu","Kishapu",-3.61667000,33.86667000,"TZ",16371,0,"Africa/Dar_es_Salaam"
156974,"Kisesa","Kisesa",-3.08333000,34.15000000,"TZ",29804,0,"Africa/Dar_es_Salaam"
156996,"Kisarawe","Kisarawe",-6.90000000,39.06667000,"TZ",12507,0,"Africa/Dar_es_Salaam"
157014,"Kisanga","Kisanga",-7.43622000,37.70337000,"TZ",10978,0,"Africa/Dar_es_Salaam"
157107,"Kirando","Kirando",-7.41667000,30.60000000,"TZ",33111,0,"Africa/Dar_es_Salaam"
157198,"Kiomboi","Kiomboi",-4.26667000,34.36667000,"TZ",23519,0,"Africa/Dar_es_Salaam"
157247,"Kintinku","Kintinku",-5.88333000,35.23333000,"TZ",7906,0,"Africa/Dar_es_Salaam"
157268,"Kingori","Kingori",-3.28333000,36.98333000,"TZ",22839,0,"Africa/Dar_es_Salaam"
157366,"Kimamba","Kimamba",-6.78333000,37.13333000,"TZ",11235,0,"Africa/Dar_es_Salaam"
157403,"Kilosa","Kilosa",-6.83333000,36.98333000,"TZ",91889,0,"Africa/Dar_es_Salaam"
157429,"Kilindoni","Kilindoni",-7.91446000,39.66204000,"TZ",12409,0,"Africa/Dar_es_Salaam"
157448,"Kilimatinde","Kilimatinde",-5.85000000,34.95000000,"TZ",5975,0,"Africa/Dar_es_Salaam"
157653,"Kihurio","Kihurio",-4.46667000,38.06667000,"TZ",8377,0,"Africa/Dar_es_Salaam"
157738,"Kigoma","Kigoma",-4.87694000,29.62667000,"TZ",164268,0,"Africa/Dar_es_Salaam"
157826,"Kidodi","Kidodi",-7.60361000,37.00438000,"TZ",35953,0,"Africa/Dar_es_Salaam"
157863,"Kidatu","Kidatu",-7.69916000,36.95722000,"TZ",37542,0,"Africa/Dar_es_Salaam"
157960,"Kibondo","Kibondo",-3.58639000,30.72028000,"TZ",28666,0,"Africa/Dar_es_Salaam"
157977,"Kibiti","Kibiti",-7.72178000,38.93749000,"TZ",30163,0,"Africa/Dar_es_Salaam"
158006,"Kibaya","Kibaya",-5.30000000,36.56667000,"TZ",5028,0,"Africa/Dar_es_Salaam"
158016,"Kibara","Kibara",-2.15000000,33.45000000,"TZ",17211,0,"Africa/Dar_es_Salaam"
158024,"Kibakwe","Kibakwe",-6.71667000,36.36667000,"TZ",19526,0,"Africa/Dar_es_Salaam"
158027,"Kibaha","Kibaha",-6.76667000,38.91667000,"TZ",23651,0,"Africa/Dar_es_Salaam"
158151,"Katumba","Katumba",-9.23333000,33.61667000,"TZ",108558,0,"Africa/Dar_es_Salaam"
158160,"Katoro","Katoro",-3.02028000,31.89583000,"TZ",49691,0,"Africa/Dar_es_Salaam"
158161,"Katoro","Katoro",-1.39972000,31.50028000,"TZ",11925,0,"Africa/Dar_es_Salaam"
158179,"Katerero","Katerero",-1.40000000,31.73333000,"TZ",18430,0,"Africa/Dar_es_Salaam"
158214,"Kasulu","Kasulu",-4.57667000,30.10250000,"TZ",37349,0,"Africa/Dar_es_Salaam"
158289,"Kasamwa","Kasamwa",-2.85000000,32.43333000,"TZ",27681,0,"Africa/Dar_es_Salaam"
158321,"Karema","Karema",-6.82052000,30.43887000,"TZ",12630,0,"Africa/Dar_es_Salaam"
158324,"Kiratu","Kiratu",-3.33333000,35.66667000,"TZ",19803,0,"Africa/Dar_es_Salaam"
158422,"Kandete","Kandete",-9.15000000,33.80000000,"TZ",10318,0,"Africa/Dar_es_Salaam"
158492,"Kamachumu","Kamachumu",-1.61861000,31.62000000,"TZ",15701,0,"Africa/Dar_es_Salaam"
158514,"Kaliua","Kaliua",-5.06056000,31.79361000,"TZ",12362,0,"Africa/Dar_es_Salaam"
158563,"Kakonko","Kakonko",-3.28278000,30.96417000,"TZ",24688,0,"Africa/Dar_es_Salaam"
158597,"Kahama","Kahama",-3.83333000,32.60000000,"TZ",36014,0,"Africa/Dar_es_Salaam"
158684,"Kabanga","Kabanga",-2.63861000,30.46778000,"TZ",19421,0,"Africa/Dar_es_Salaam"
158825,"Izazi","Izazi",-7.20000000,35.73333000,"TZ",18010,0,"Africa/Dar_es_Salaam"
158876,"Itumba","Itumba",-9.40000000,33.18333000,"TZ",13438,0,"Africa/Dar_es_Salaam"
158904,"Itigi","Itigi",-5.70000000,34.48333000,"TZ",19711,0,"Africa/Dar_es_Salaam"
158974,"Issenye","Issenye",-2.00000000,34.33333000,"TZ",7778,0,"Africa/Dar_es_Salaam"
159045,"Isaka","Isaka",-3.90000000,32.93333000,"TZ",21094,0,"Africa/Dar_es_Salaam"
159071,"Iringa","Iringa",-7.76667000,35.70000000,"TZ",111820,0,"Africa/Dar_es_Salaam"
159107,"Ipinda","Ipinda",-9.48333000,33.90000000,"TZ",17775,0,"Africa/Dar_es_Salaam"
159134,"Inyonga","Inyonga",-6.71667000,32.06667000,"TZ",11790,0,"Africa/Dar_es_Salaam"
159179,"Ilula","Ilula",-7.67660000,36.03658000,"TZ",29193,0,"Africa/Dar_es_Salaam"
159186,"Ilongero","Ilongero",-4.66667000,34.86667000,"TZ",17342,0,"Africa/Dar_es_Salaam"
159218,"Ilembula","Ilembula",-8.90000000,34.58333000,"TZ",18870,0,"Africa/Dar_es_Salaam"
159242,"Ikwiriri","Ikwiriri",-7.95618000,38.97164000,"TZ",13071,0,"Africa/Dar_es_Salaam"
159267,"Ikungi","Ikungi",-5.13333000,34.76667000,"TZ",19692,0,"Africa/Dar_es_Salaam"
159380,"Igurusi","Igurusi",-8.85000000,33.85000000,"TZ",24895,0,"Africa/Dar_es_Salaam"
159382,"Igurubi","Igurubi",-4.00000000,33.70000000,"TZ",10083,0,"Africa/Dar_es_Salaam"
159386,"Igunga","Igunga",-4.28333000,33.88333000,"TZ",35644,0,"Africa/Dar_es_Salaam"
159398,"Igugunu","Igugunu",-4.56667000,34.63333000,"TZ",22810,0,"Africa/Dar_es_Salaam"
159492,"Ifakara","Ifakara",-8.13333000,36.68333000,"TZ",49528,0,"Africa/Dar_es_Salaam"
159647,"Hedaru","Hedaru",-4.50000000,37.90000000,"TZ",20231,0,"Africa/Dar_es_Salaam"
159908,"Geita","Geita",-2.86667000,32.16667000,"TZ",40000,0,"Africa/Dar_es_Salaam"
159909,"Geiro","Geiro",-6.15000000,36.86667000,"TZ",37909,0,"Africa/Dar_es_Salaam"
159951,"Galappo","Galappo",-4.26667000,35.85000000,"TZ",18528,0,"Africa/Dar_es_Salaam"
160073,"Endasak","Endasak",-4.41667000,35.51667000,"TZ",14576,0,"Africa/Dar_es_Salaam"
160141,"Dunda","Dunda",-8.11667000,34.25000000,"TZ",14080,0,"Africa/Dar_es_Salaam"
160172,"Dongobesh","Dongobesh",-4.06667000,35.38333000,"TZ",18864,0,"Africa/Dar_es_Salaam"
160196,"Dodoma","Dodoma",-6.17221000,35.73947000,"TZ",180541,0,"Africa/Dar_es_Salaam"
160263,"Dar es Salaam","Dar es Salaam",-6.82349000,39.26951000,"TZ",2698652,0,"Africa/Dar_es_Salaam"
160266,"Dareda","Dareda",-4.21667000,35.55000000,"TZ",19876,0,"Africa/Dar_es_Salaam"
160464,"Chimala","Chimala",-8.85637000,34.02393000,"TZ",24817,0,"Africa/Dar_es_Salaam"
160552,"Chato","Chato",-2.63778000,31.76694000,"TZ",27776,0,"Africa/Dar_es_Salaam"
160592,"Chanika","Chanika",-5.41667000,38.01667000,"TZ",30905,0,"Africa/Dar_es_Salaam"
160660,"Chalinze","Chalinze",-6.63784000,38.35396000,"TZ",34335,0,"Africa/Dar_es_Salaam"
160670,"Chala","Chala",-7.58333000,31.26667000,"TZ",22624,0,"Africa/Dar_es_Salaam"
160677,"Chake Chake","Chake Chake",-5.24586000,39.76659000,"TZ",21686,0,"Africa/Dar_es_Salaam"
160798,"Butiama","Butiama",-1.76667000,33.96667000,"TZ",16376,0,"Africa/Dar_es_Salaam"
160833,"Buseresere","Buseresere",-3.02361000,31.87472000,"TZ",52870,0,"Africa/Dar_es_Salaam"
160877,"Bungu","Bungu",-7.63369000,39.05818000,"TZ",27873,0,"Africa/Dar_es_Salaam"
160892,"Bunda","Bunda",-2.05000000,33.86667000,"TZ",50944,0,"Africa/Dar_es_Salaam"
160961,"Bukoba","Bukoba",-1.33167000,31.81222000,"TZ",70628,0,"Africa/Dar_es_Salaam"
160971,"Bukene","Bukene",-4.23333000,32.88333000,"TZ",7444,0,"Africa/Dar_es_Salaam"
161022,"Bugene","Bugene",-1.59111000,31.14028000,"TZ",10609,0,"Africa/Dar_es_Salaam"
161023,"Bugarama","Bugarama",-2.87056000,30.52806000,"TZ",32494,0,"Africa/Dar_es_Salaam"
161154,"Biharamulo","Biharamulo",-2.63194000,31.30889000,"TZ",34038,0,"Africa/Dar_es_Salaam"
161197,"Basotu","Basotu",-4.36667000,35.08333000,"TZ",20937,0,"Africa/Dar_es_Salaam"
161204,"Bashanet","Bashanet",-4.23333000,35.41667000,"TZ",19087,0,"Africa/Dar_es_Salaam"
161218,"Bariadi","Bariadi",-2.80000000,33.98333000,"TZ",33865,0,"Africa/Dar_es_Salaam"
161290,"Bagamoyo","Bagamoyo",-6.44222000,38.90422000,"TZ",82426,0,"Africa/Dar_es_Salaam"
161312,"Babati","Babati",-4.21667000,35.75000000,"TZ",34291,0,"Africa/Dar_es_Salaam"
161325,"Arusha","Arusha",-3.36667000,36.68333000,"TZ",341136,0,"Africa/Dar_es_Salaam"
161616,"Balkanabat","Balkanabat",39.51075000,54.36713000,"TM",87822,0,"Asia/Ashgabat"
161901,"Kaka","Kaka",37.34821000,59.61431000,"TM",18545,0,"Asia/Ashgabat"
161931,"Serdar","Serdar",38.97644000,56.27575000,"TM",12000,0,"Asia/Ashgabat"
161943,"Gumdag","Gumdag",39.20611000,54.59056000,"TM",24312,0,"Asia/Ashgabat"
161974,"Gazanjyk","Gazanjyk",39.24463000,55.51536000,"TM",21090,0,"Asia/Ashgabat"
162099,"Abadan","Abadan",38.05415000,58.19721000,"TM",39481,0,"Asia/Ashgabat"
162158,"Baharly","Baharly",38.43624000,57.43158000,"TM",22991,0,"Asia/Ashgabat"
162183,"Ashgabat","Ashgabat",37.95000000,58.38333000,"TM",727700,0,"Asia/Ashgabat"
162199,"Annau","Annau",37.88757000,58.51600000,"TM",27526,0,"Asia/Ashgabat"
162627,"Yabrūd","Yabrud",33.96921000,36.65729000,"SY",40502,0,"Asia/Damascus"
163270,"Ţayyibat al Imām","Tayyibat al Imam",35.26592000,36.71219000,"SY",29259,0,"Asia/Damascus"
163345,"Tartouss","Tartouss",34.88902000,35.88659000,"SY",89457,0,"Asia/Damascus"
163476,"Tall Rif‘at","Tall Rif`at",36.47229000,37.09471000,"SY",25658,0,"Asia/Damascus"
163533,"Tallkalakh","Tallkalakh",34.66842000,36.25995000,"SY",29754,0,"Asia/Damascus"
163779,"Tallbīsah","Tallbisah",34.84072000,36.73092000,"SY",38491,0,"Asia/Damascus"
163806,"Ţafas","Tafas",32.73709000,36.06654000,"SY",31249,0,"Asia/Damascus"
163808,"Tadmur","Tadmur",34.56240000,38.28402000,"SY",51015,0,"Asia/Damascus"
163811,"Tādif","Tadif",36.34814000,37.53090000,"SY",34670,0,"Asia/Damascus"
163915,"Souran","Souran",35.29193000,36.74848000,"SY",30716,0,"Asia/Damascus"
164025,"Subaykhān","Subaykhan",34.85305000,40.59987000,"SY",25514,0,"Asia/Damascus"
164328,"Ash Shaykh Miskīn","Ash Shaykh Miskin",32.82944000,36.15933000,"SY",25920,0,"Asia/Damascus"
164626,"Shahbā","Shahba",32.85514000,36.62896000,"SY",14784,0,"Asia/Damascus"
164816,"Sarāqib","Saraqib",35.86447000,36.80591000,"SY",34231,0,"Asia/Damascus"
164898,"Salqīn","Salqin",36.13951000,36.45413000,"SY",31608,262,"Asia/Damascus"
164947,"As Salamīyah","As Salamiyah",35.01127000,37.05324000,"SY",94887,0,"Asia/Damascus"
164952,"Şalākhid","Salakhid",32.87271000,36.57271000,"SY",12842,0,"Asia/Damascus"
165060,"Satita","Satita",34.82099000,36.11773000,"SY",27815,0,"Asia/Damascus"
165929,"Qaţanā","Qatana",33.43757000,36.07888000,"SY",18511,0,"Asia/Damascus"
165997,"Jāsim","Jasim",32.99233000,36.06018000,"SY",30283,0,"Asia/Damascus"
166111,"Qārah","Qarah",34.15558000,36.74284000,"SY",20656,0,"Asia/Damascus"
166331,"Nubl","Nubl",36.37867000,36.99294000,"SY",25546,0,"Asia/Damascus"
166640,"Mūrak","Murak",35.37615000,36.68970000,"SY",14307,0,"Asia/Damascus"
166719,"Mukharram al Fawqānī","Mukharram al Fawqani",34.81521000,37.08677000,"SY",9112,0,"Asia/Damascus"
167046,"Maşyāf","Masyaf",35.06530000,36.34060000,"SY",32262,0,"Asia/Damascus"
167357,"Manbij","Manbij",36.52815000,37.95495000,"SY",68888,0,"Asia/Damascus"
167605,"Ma‘arratmişrīn","Ma`arratmisrin",36.01152000,36.67183000,"SY",32163,0,"Asia/Damascus"
168325,"Khān Shaykhūn","Khan Shaykhun",35.44208000,36.65095000,"SY",48975,0,"Asia/Damascus"
168620,"Kafr Zaytā","Kafr Zayta",35.37425000,36.60330000,"SY",21845,0,"Asia/Damascus"
168629,"Kafr Takhārīm","Kafr Takharim",36.11680000,36.51522000,"SY",22436,0,"Asia/Damascus"
168661,"Kafranbel","Kafranbel",35.61376000,36.56449000,"SY",45652,0,"Asia/Damascus"
168668,"Kafr Lāhā","Kafr Laha",34.89469000,36.49582000,"SY",21819,0,"Asia/Damascus"
169023,"Jisr ash Shughūr","Jisr ash Shughur",35.81426000,36.32062000,"SY",39311,0,"Asia/Damascus"
169113,"Jayrūd","Jayrud",33.80709000,36.73861000,"SY",32352,0,"Asia/Damascus"
169179,"Jarābulus","Jarabulus",36.81750000,38.01111000,"SY",24997,0,"Asia/Damascus"
169304,"Jablah","Jablah",35.36211000,35.92759000,"SY",65915,0,"Asia/Damascus"
169341,"Izra‘","Izra`",32.87060000,36.25453000,"SY",13882,0,"Asia/Damascus"
169372,"‘Irbīn","`Irbin",33.53719000,36.36635000,"SY",42474,0,"Asia/Damascus"
169375,"Inkhil","Inkhil",33.01809000,36.12828000,"SY",29076,0,"Asia/Damascus"
169389,"Idlib","Idlib",35.93062000,36.63393000,"SY",128840,0,"Asia/Damascus"
169577,"Homs","Homs",34.72682000,36.72339000,"SY",775404,0,"Asia/Damascus"
169897,"Ḩarastā","Harasta",33.55869000,36.36515000,"SY",37348,0,"Asia/Damascus"
170017,"Ḩamāh","Hamah",35.13179000,36.75783000,"SY",460602,0,"Asia/Damascus"
170044,"Ḩalfāyā","Halfaya",35.26014000,36.60581000,"SY",23403,0,"Asia/Damascus"
170063,"Aleppo","Aleppo",36.20124000,37.16117000,"SY",1602264,0,"Asia/Damascus"
170572,"Ad Duraykīsh","Ad Duraykish",34.89514000,36.14303000,"SY",11918,0,"Asia/Damascus"
170592,"Douma","Douma",33.57175000,36.40270000,"SY",111864,0,"Asia/Damascus"
170654,"Damascus","Damascus",33.51020000,36.29128000,"SY",1569394,0,"Asia/Damascus"
170785,"Dayr Ḩāfir","Dayr Hafir",36.15694000,37.70778000,"SY",28905,0,"Asia/Damascus"
170794,"Deir ez-Zor","Deir ez-Zor",35.33588000,40.14084000,"SY",242565,0,"Asia/Damascus"
170817,"Dayr al ‘Aşāfīr","Dayr al 'Asafir",33.46585000,36.42044000,"SY",6209,0,"Asia/Damascus"
170887,"Ad Darbāsīyah","Ad Darbasiyah",37.07279000,40.65199000,"SY",21481,0,"Asia/Damascus"
170892,"Dārayyā","Darayya",33.45835000,36.23256000,"SY",71596,0,"Asia/Damascus"
170905,"Dar‘ā","Dar'a",32.61889000,36.10213000,"SY",97969,0,"Asia/Damascus"
171451,"Binnish","Binnish",35.95664000,36.71380000,"SY",30354,0,"Asia/Damascus"
171830,"Bāniyās","Baniyas",35.18188000,35.94871000,"SY",39066,0,"Asia/Damascus"
172059,"Az Zabadānī","Az Zabadani",33.72488000,36.10050000,"SY",29549,0,"Asia/Damascus"
172082,"I‘zāz","I`zaz",36.58662000,37.04628000,"SY",66138,0,"Asia/Damascus"
172256,"‘Ayn al ‘Arab","'Ayn al 'Arab",36.89095000,38.35347000,"SY",50000,0,"Asia/Damascus"
172349,"At Tall","At Tall",33.61033000,36.31070000,"SY",55561,0,"Asia/Damascus"
172374,"Ath Thawrah","Ath Thawrah",35.83758000,38.54828000,"SY",87880,0,"Asia/Damascus"
172408,"As Suwaydā’","As Suwayda'",32.70896000,36.56951000,"SY",59052,0,"Asia/Damascus"
172469,"Aş Şanamayn","As Sanamayn",33.07186000,36.18316000,"SY",25702,0,"Asia/Damascus"
172503,"As Safīrah","As Safirah",36.07696000,37.37251000,"SY",95832,0,"Asia/Damascus"
172946,"Ar Rastan","Ar Rastan",34.92667000,36.73241000,"SY",53152,0,"Asia/Damascus"
172955,"Ar Raqqah","Ar Raqqah",35.95283000,39.00788000,"SY",177636,0,"Asia/Damascus"
173193,"An Nabk","An Nabk",34.02403000,36.72848000,"SY",49372,0,"Asia/Damascus"
173311,"Al Ghanţū","Al Ghantu",34.82202000,36.69613000,"SY",9412,0,"Asia/Damascus"
173312,"Al Quţayfah","Al Qutayfah",33.73848000,36.60071000,"SY",16118,0,"Asia/Damascus"
173322,"Al Quşayr","Al Qusayr",34.50780000,36.58029000,"SY",41062,0,"Asia/Damascus"
173334,"Al Qunayţirah","Al Qunaytirah",33.12595000,35.82461000,"SY",36143,0,"Asia/Damascus"
173361,"Al Qaryatayn","Al Qaryatayn",34.22956000,37.24066000,"SY",31748,0,"Asia/Damascus"
173480,"Al Mayādīn","Al Mayadin",35.01982000,40.45154000,"SY",54534,0,"Asia/Damascus"
173576,"Latakia","Latakia",35.53168000,35.79011000,"SY",340181,0,"Asia/Damascus"
173598,"Al Kiswah","Al Kiswah",33.35810000,36.24190000,"SY",23526,0,"Asia/Damascus"
173811,"Al Ḩasakah","Al Hasakah",36.50237000,40.74772000,"SY",81539,0,"Asia/Damascus"
173819,"Al Ḩarāk","Al Harak",32.74932000,36.30994000,"SY",23784,0,"Asia/Damascus"
174018,"Al Bāb","Al Bab",36.37051000,37.51570000,"SY",130745,0,"Asia/Damascus"
174186,"‘Afrīn","`Afrin",36.51194000,36.86954000,"SY",48693,0,"Asia/Damascus"
174259,"Ad Dānā","Ad Dana",36.21252000,36.76978000,"SY",21987,0,"Asia/Damascus"
174448,"Ālbū Kamāl","Albu Kamal",34.45226000,40.91854000,"SY",57572,0,"Asia/Damascus"
174506,"Hajīn","Hajin",34.69508000,40.83138000,"SY",29237,0,"Asia/Damascus"
174710,"Yeghegnadzor","Yeghegnadzor",39.76389000,45.33239000,"AM",8200,0,"Asia/Yerevan"
174725,"Vedi","Vedi",39.91388000,44.72510000,"AM",12192,0,"Asia/Yerevan"
174726,"Vayk’","Vayk'",39.68890000,45.46668000,"AM",5419,0,"Asia/Yerevan"
174875,"Kapan","Kapan",39.20755000,46.40576000,"AM",33160,0,"Asia/Yerevan"
174895,"Goris","Goris",39.51111000,46.34168000,"AM",20379,0,"Asia/Yerevan"
174972,"Hats’avan","Hats'avan",39.46405000,45.97047000,"AM",15208,0,"Asia/Yerevan"
174979,"Artashat","Artashat",39.96144000,44.54447000,"AM",20562,0,"Asia/Yerevan"
174991,"Ararat","Ararat",39.83069000,44.70569000,"AM",28832,0,"Asia/Yerevan"
175499,"Nchelenge","Nchelenge",-9.34506000,28.73396000,"ZM",23693,0,"Africa/Lusaka"
175555,"Nakonde","Nakonde",-9.34213000,32.74500000,"ZM",10652,0,"Africa/Lusaka"
175961,"Mpulungu","Mpulungu",-8.76234000,31.11405000,"ZM",8547,0,"Africa/Lusaka"
176146,"Mbala","Mbala",-8.84024000,31.36587000,"ZM",20570,0,"Africa/Lusaka"
176555,"Kawambwa","Kawambwa",-9.79150000,29.07913000,"ZM",20589,0,"Africa/Lusaka"
178073,"Wundanyi","Wundanyi",-3.40193000,38.36402000,"KE",12501,0,"Africa/Nairobi"
178077,"Wote","Wote",-1.78079000,37.62882000,"KE",6133,0,"Africa/Nairobi"
178093,"Witu","Witu",-2.38885000,40.43821000,"KE",5380,0,"Africa/Nairobi"
178202,"Webuye","Webuye",0.60751000,34.76966000,"KE",22507,0,"Africa/Nairobi"
178443,"Wajir","Wajir",1.74710000,40.05732000,"KE",45771,0,"Africa/Nairobi"
178522,"Voi","Voi",-3.39605000,38.55609000,"KE",45483,0,"Africa/Nairobi"
179330,"Thika","Thika",-1.03326000,37.06933000,"KE",200000,0,"Africa/Nairobi"
179525,"Taveta","Taveta",-3.39879000,37.68336000,"KE",13377,0,"Africa/Nairobi"
179634,"Takaungu","Takaungu",-3.68367000,39.85661000,"KE",10760,0,"Africa/Nairobi"
180646,"Sawa Sawa","Sawa Sawa",-4.47166000,39.48463000,"KE",12975,0,"Africa/Nairobi"
181135,"Rongai","Rongai",-0.17333000,35.86382000,"KE",30471,0,"Africa/Nairobi"
181501,"Pumwani","Pumwani",-1.28333000,36.85000000,"KE",29616,0,"Africa/Nairobi"
181702,"Oyugis","Oyugis",-0.50898000,34.73583000,"KE",10116,0,"Africa/Nairobi"
182701,"Nyeri","Nyeri",-0.42013000,36.94759000,"KE",51084,0,"Africa/Nairobi"
183027,"Nyahururu","Nyahururu",0.04210000,36.36734000,"KE",31978,0,"Africa/Nairobi"
183595,"Ngong","Ngong",-1.36175000,36.65660000,"KE",9519,0,"Africa/Nairobi"
184367,"Naro Moru","Naro Moru",-0.16756000,37.02129000,"KE",9018,0,"Africa/Nairobi"
184379,"Narok","Narok",-1.07829000,35.86012000,"KE",36061,0,"Africa/Nairobi"
184433,"Nanyuki","Nanyuki",0.01667000,37.07283000,"KE",36142,0,"Africa/Nairobi"
184570,"Namanga","Namanga",-2.54327000,36.79053000,"KE",13193,0,"Africa/Nairobi"
184622,"Nakuru","Nakuru",-0.28333000,36.06667000,"KE",259903,0,"Africa/Nairobi"
184707,"Naivasha","Naivasha",-0.71667000,36.43591000,"KE",38366,0,"Africa/Nairobi"
184745,"Nairobi","Nairobi",-1.28333000,36.81667000,"KE",2750547,0,"Africa/Nairobi"
184921,"Mwingi","Mwingi",-0.93435000,38.06005000,"KE",11219,0,"Africa/Nairobi"
185579,"Murang’a","Murang'a",-0.71667000,37.15000000,"KE",11987,0,"Africa/Nairobi"
185702,"Mumias","Mumias",0.33511000,34.48640000,"KE",45485,0,"Africa/Nairobi"
185939,"Muhoroni","Muhoroni",-0.15406000,35.19878000,"KE",15217,0,"Africa/Nairobi"
186180,"Moyale","Moyale",3.52160000,39.05472000,"KE",34314,0,"Africa/Nairobi"
186301,"Mombasa","Mombasa",-4.05466000,39.66359000,"KE",799668,0,"Africa/Nairobi"
186315,"Molo","Molo",-0.24790000,35.73743000,"KE",27896,0,"Africa/Nairobi"
186731,"Migori","Migori",-1.06343000,34.47313000,"KE",35240,0,"Africa/Nairobi"
186827,"Meru","Meru",0.04626000,37.65587000,"KE",47226,0,"Africa/Nairobi"
187110,"Mbale","Mbale",-3.40000000,38.38333000,"KE",60000,0,"Africa/Nairobi"
187231,"Maua","Maua",0.23206000,37.94052000,"KE",10804,0,"Africa/Nairobi"
187585,"Marsabit","Marsabit",2.32839000,37.98986000,"KE",15361,0,"Africa/Nairobi"
187661,"Mariakani","Mariakani",-3.86332000,39.47362000,"KE",12786,0,"Africa/Nairobi"
187725,"Maralal","Maralal",1.09679000,36.69799000,"KE",20841,0,"Africa/Nairobi"
187896,"Mandera","Mandera",3.93726000,41.85688000,"KE",36076,0,"Africa/Nairobi"
187968,"Malindi","Malindi",-3.21799000,40.11692000,"KE",118265,0,"Africa/Nairobi"
188025,"Malaba","Malaba",0.63457000,34.27560000,"KE",8383,0,"Africa/Nairobi"
188080,"Makueni","Makueni",-1.80409000,37.62034000,"KE",20681,0,"Africa/Nairobi"
188408,"Magadi","Magadi",-1.90122000,36.28700000,"KE",14529,0,"Africa/Nairobi"
188492,"Machakos","Machakos",-1.51667000,37.26667000,"KE",31971,0,"Africa/Nairobi"
188657,"Lugulu","Lugulu",0.39361000,34.30528000,"KE",40894,0,"Africa/Nairobi"
188714,"Luanda","Luanda",0.29668000,34.06459000,"KE",10053,0,"Africa/Nairobi"
189280,"Lodwar","Lodwar",3.11911000,35.59727000,"KE",20219,0,"Africa/Nairobi"
189386,"Limuru","Limuru",-1.10000000,36.65000000,"KE",6317,0,"Africa/Nairobi"
189741,"Lamu","Lamu",-2.27169000,40.90201000,"KE",24525,0,"Africa/Nairobi"
190108,"Kwale","Kwale",-4.17375000,39.45206000,"KE",4883,0,"Africa/Nairobi"
191038,"Kitui","Kitui",-1.36696000,38.01055000,"KE",15954,0,"Africa/Nairobi"
191220,"Kitale","Kitale",1.01572000,35.00622000,"KE",75123,0,"Africa/Nairobi"
191245,"Kisumu","Kisumu",-0.10221000,34.76171000,"KE",216479,0,"Africa/Nairobi"
191299,"Kisii","Kisii",-0.68174000,34.76666000,"KE",28547,0,"Africa/Nairobi"
191833,"Kinango","Kinango",-4.13723000,39.31528000,"KE",8070,0,"Africa/Nairobi"
191837,"Kihancha","Kihancha",-1.18376000,34.62616000,"KE",13162,0,"Africa/Nairobi"
192067,"Kilifi","Kilifi",-3.63045000,39.84992000,"KE",46118,0,"Africa/Nairobi"
192710,"Kiambu","Kiambu",-1.16667000,36.83333000,"KE",21234,0,"Africa/Nairobi"
192859,"Keruguya","Keruguya",-0.49887000,37.28031000,"KE",15287,0,"Africa/Nairobi"
192900,"Kericho","Kericho",-0.36774000,35.28314000,"KE",35748,0,"Africa/Nairobi"
193627,"Karuri","Karuri",-0.70000000,37.18333000,"KE",21476,0,"Africa/Nairobi"
193985,"Kapsowar","Kapsowar",0.98119000,35.56145000,"KE",9152,0,"Africa/Nairobi"
194038,"Kapsabet","Kapsabet",0.20387000,35.10500000,"KE",3758,0,"Africa/Nairobi"
194160,"Kapenguria","Kapenguria",1.23333000,35.11667000,"KE",56000,0,"Africa/Nairobi"
194406,"Kangundo","Kangundo",-1.29792000,37.34705000,"KE",10094,0,"Africa/Nairobi"
195272,"Kakamega","Kakamega",0.28422000,34.75229000,"KE",63426,0,"Africa/Nairobi"
195298,"Kajiado","Kajiado",-1.85238000,36.77683000,"KE",11198,0,"Africa/Nairobi"
195821,"Kabarnet","Kabarnet",0.49194000,35.74303000,"KE",24661,0,"Africa/Nairobi"
196231,"Isiolo","Isiolo",0.35462000,37.58218000,"KE",33207,0,"Africa/Nairobi"
196742,"Homa Bay","Homa Bay",-0.52731000,34.45714000,"KE",40319,0,"Africa/Nairobi"
196752,"Hola","Hola",-1.48256000,40.03341000,"KE",6932,0,"Africa/Nairobi"
197514,"Gazi","Gazi",-4.42402000,39.50588000,"KE",5222,0,"Africa/Nairobi"
197745,"Garissa","Garissa",-0.45275000,39.64601000,"KE",67861,0,"Africa/Nairobi"
198476,"Embu","Embu",-0.53112000,37.45061000,"KE",34922,0,"Africa/Nairobi"
198629,"Eldoret","Eldoret",0.52036000,35.26993000,"KE",218446,0,"Africa/Nairobi"
198636,"Eldama Ravine","Eldama Ravine",0.05158000,35.73078000,"KE",12524,0,"Africa/Nairobi"
199284,"Chuka","Chuka",-0.33316000,37.64587000,"KE",9347,0,"Africa/Nairobi"
199971,"Butere","Butere",0.20636000,34.49348000,"KE",11205,0,"Africa/Nairobi"
199989,"Busia","Busia",0.46005000,34.11169000,"KE",51981,0,"Africa/Nairobi"
200061,"Port Bunyala","Port Bunyala",0.09388000,33.97559000,"KE",6793,0,"Africa/Nairobi"
200067,"Bungoma","Bungoma",0.56350000,34.56055000,"KE",55962,0,"Africa/Nairobi"
200304,"Bondo","Bondo",0.23861000,34.26944000,"KE",8683,0,"Africa/Nairobi"
200308,"Bomet","Bomet",-0.78129000,35.34156000,"KE",5270,0,"Africa/Nairobi"
200575,"Baringo","Baringo",0.46667000,35.96667000,"KE",7656,0,"Africa/Nairobi"
200787,"Athi River","Athi River",-1.45630000,36.97826000,"KE",24530,0,"Africa/Nairobi"
201229,"Ahero","Ahero",-0.17462000,34.91630000,"KE",8788,0,"Africa/Nairobi"
201463,"Rwamagana","Rwamagana",-1.94870000,30.43470000,"RW",47203,0,"Africa/Kigali"
201521,"Musanze","Musanze",-1.49984000,29.63497000,"RW",86685,0,"Africa/Kigali"
201865,"Nzega","Nzega",-2.47900000,29.55640000,"RW",33832,0,"Africa/Kigali"
202061,"Kigali","Kigali",-1.94995000,30.05885000,"RW",745261,0,"Africa/Kigali"
202065,"Kibuye","Kibuye",-2.06028000,29.34778000,"RW",48024,0,"Africa/Kigali"
202068,"Kibungo","Kibungo",-2.15970000,30.54270000,"RW",46240,0,"Africa/Kigali"
202217,"Gitarama","Gitarama",-2.07444000,29.75667000,"RW",87613,0,"Africa/Kigali"
202326,"Cyangugu","Cyangugu",-2.48460000,28.90750000,"RW",63883,0,"Africa/Kigali"
202905,"Gisenyi","Gisenyi",-1.70278000,29.25639000,"RW",83623,0,"Africa/Kigali"
203104,"Byumba","Byumba",-1.57630000,30.06750000,"RW",70593,0,"Africa/Kigali"
203112,"Butare","Butare",-2.59667000,29.73944000,"RW",89600,0,"Africa/Kigali"
203717,"Yangambi","Yangambi",0.76755000,24.43973000,"CD",35531,0,"Africa/Lubumbashi"
204283,"Watsa","Watsa",3.03716000,29.53551000,"CD",24516,0,"Africa/Lubumbashi"
204318,"Wamba","Wamba",2.14838000,27.99466000,"CD",17373,0,"Africa/Lubumbashi"
204405,"Uvira","Uvira",-3.39534000,29.13779000,"CD",170391,0,"Africa/Lubumbashi"
204953,"Tshikapa","Tshikapa",-6.41621000,20.79995000,"CD",267462,0,"Africa/Lubumbashi"
205970,"Sake","Sake",-1.57386000,29.04339000,"CD",17151,0,"Africa/Lubumbashi"
207570,"Mwene-Ditu","Mwene-Ditu",-7.00906000,23.45278000,"CD",189177,0,"Africa/Lubumbashi"
207596,"Mweka","Mweka",-4.85187000,21.55950000,"CD",50675,0,"Africa/Lubumbashi"
209228,"Mbuji-Mayi","Mbuji-Mayi",-6.13603000,23.58979000,"CD",874761,0,"Africa/Lubumbashi"
210379,"Lusambo","Lusambo",-4.97503000,23.44391000,"CD",41416,0,"Africa/Lubumbashi"
210939,"Luebo","Luebo",-5.35218000,21.42192000,"CD",35183,0,"Africa/Lubumbashi"
211098,"Lubao","Lubao",-5.38771000,25.74885000,"CD",43068,0,"Africa/Lubumbashi"
211647,"Lodja","Lodja",-3.52105000,23.60050000,"CD",68244,0,"Africa/Lubumbashi"
211734,"Lisala","Lisala",2.15127000,21.51672000,"CD",70087,0,"Africa/Kinshasa"
212360,"Kongolo","Kongolo",-5.38532000,27.00029000,"CD",31943,0,"Africa/Lubumbashi"
212730,"Kisangani","Kisangani",0.51528000,25.19099000,"CD",539158,0,"Africa/Lubumbashi"
212902,"Kindu","Kindu",-2.94373000,25.92237000,"CD",135698,0,"Africa/Lubumbashi"
213940,"Kasongo","Kasongo",-4.42741000,26.66656000,"CD",55118,0,"Africa/Lubumbashi"
214481,"Kananga","Kananga",-5.89624000,22.41659000,"CD",463546,0,"Africa/Lubumbashi"
214575,"Kampene","Kampene",-3.59678000,26.66715000,"CD",37034,0,"Africa/Lubumbashi"
214614,"Kamina","Kamina",-8.73508000,24.99798000,"CD",73557,0,"Africa/Lubumbashi"
214974,"Kalemie","Kalemie",-5.94749000,29.19471000,"CD",146974,0,"Africa/Lubumbashi"
215527,"Kabinda","Kabinda",-6.13791000,24.48179000,"CD",59004,0,"Africa/Lubumbashi"
215605,"Kabare","Kabare",-2.49682000,28.79081000,"CD",37034,0,"Africa/Lubumbashi"
215668,"Kabalo","Kabalo",-6.05255000,26.91430000,"CD",29833,0,"Africa/Lubumbashi"
215771,"Isiro","Isiro",2.77391000,27.61603000,"CD",127076,0,"Africa/Lubumbashi"
215976,"Ilebo","Ilebo",-4.33111000,20.58638000,"CD",107093,0,"Africa/Lubumbashi"
216281,"Goma","Goma",-1.67409000,29.22845000,"CD",144124,0,"Africa/Lubumbashi"
216404,"Gbadolite","Gbadolite",4.27900000,21.00284000,"CD",50493,0,"Africa/Kinshasa"
216449,"Gandajika","Gandajika",-6.74504000,23.95328000,"CD",154425,0,"Africa/Lubumbashi"
217389,"Demba","Demba",-5.49573000,22.26962000,"CD",22263,0,"Africa/Lubumbashi"
217562,"Butembo","Butembo",0.14164000,29.29117000,"CD",154621,0,"Africa/Lubumbashi"
217570,"Buta","Buta",2.78582000,24.72997000,"CD",50130,0,"Africa/Lubumbashi"
217637,"Businga","Businga",3.33863000,20.88577000,"CD",28919,0,"Africa/Kinshasa"
217695,"Bunia","Bunia",1.55941000,30.25224000,"CD",96764,0,"Africa/Lubumbashi"
217745,"Bumba","Bumba",2.18771000,22.46827000,"CD",95520,0,"Africa/Kinshasa"
217831,"Bukavu","Bukavu",-2.49077000,28.84281000,"CD",225389,0,"Africa/Lubumbashi"
217834,"Bukama","Bukama",-9.20443000,25.85475000,"CD",38770,0,"Africa/Lubumbashi"
218253,"Bondo","Bondo",3.81461000,23.68665000,"CD",17860,0,"Africa/Lubumbashi"
218680,"Boende","Boende",-0.28163000,20.88053000,"CD",32091,0,"Africa/Kinshasa"
219057,"Beni","Beni",0.49113000,29.47306000,"CD",89648,0,"Africa/Lubumbashi"
219414,"Basoko","Basoko",1.23909000,23.61598000,"CD",43709,0,"Africa/Lubumbashi"
220448,"Aketi","Aketi",2.73877000,23.78326000,"CD",35161,0,"Africa/Lubumbashi"
220782,"Tadjoura","Tadjoura",11.78528000,42.88444000,"DJ",22193,0,"Africa/Djibouti"
221527,"Obock","Obock",11.96306000,43.29056000,"DJ",17776,0,"Africa/Djibouti"
223817,"Djibouti","Djibouti",11.58901000,43.14503000,"DJ",623891,0,"Africa/Djibouti"
223890,"Dikhil","Dikhil",11.10861000,42.37389000,"DJ",12043,0,"Africa/Djibouti"
224152,"Ḏânan","Danan",11.18333000,42.93333000,"DJ",40074,0,"Africa/Djibouti"
225037,"‘Arta","`Arta",11.52222000,42.84194000,"DJ",6025,0,"Africa/Djibouti"
225284,"'Ali Sabieh","'Ali Sabieh",11.15583000,42.71250000,"DJ",40074,0,"Africa/Djibouti"
225835,"Yumbe","Yumbe",3.46506000,31.24689000,"UG",24300,0,"Africa/Kampala"
225858,"Wobulenzi","Wobulenzi",0.72833000,32.51222000,"UG",24415,0,"Africa/Kampala"
225964,"Wakiso","Wakiso",0.40444000,32.45944000,"UG",20530,0,"Africa/Kampala"
226110,"Tororo","Tororo",0.69299000,34.18085000,"UG",40400,0,"Africa/Kampala"
226234,"Soroti","Soroti",1.71464000,33.61113000,"UG",56400,0,"Africa/Kampala"
226267,"Sironko","Sironko",1.23132000,34.24773000,"UG",14000,0,"Africa/Kampala"
226600,"Rukungiri","Rukungiri",-0.84111000,29.94194000,"UG",14000,0,"Africa/Kampala"
226823,"Pallisa","Pallisa",1.14500000,33.70944000,"UG",30745,0,"Africa/Kampala"
226853,"Paidha","Paidha",2.41669000,30.98551000,"UG",28348,0,"Africa/Kampala"
226866,"Pader Palwo","Pader Palwo",2.80056000,33.13500000,"UG",11152,0,"Africa/Kampala"
227528,"Nyachera","Nyachera",-0.90000000,30.41667000,"UG",30509,0,"Africa/Kampala"
227592,"Ntungamo","Ntungamo",-0.88333000,29.65000000,"UG",16915,0,"Africa/Kampala"
227593,"Ntungamo","Ntungamo",-0.87944000,30.26417000,"UG",15300,0,"Africa/Kampala"
227812,"Njeru","Njeru",0.44166000,33.17917000,"UG",61952,0,"Africa/Kampala"
227904,"Nebbi","Nebbi",2.47826000,31.08893000,"UG",30354,0,"Africa/Kampala"
228227,"Namasuba","Namasuba",0.68944000,32.42139000,"UG",22507,0,"Africa/Kampala"
228418,"Nakasongola","Nakasongola",1.30889000,32.45639000,"UG",6921,0,"Africa/Kampala"
228853,"Mukono","Mukono",0.35333000,32.75528000,"UG",67290,0,"Africa/Kampala"
228971,"Mubende","Mubende",0.55849000,31.39489000,"UG",18936,0,"Africa/Kampala"
229024,"Mpigi","Mpigi",0.22500000,32.31361000,"UG",11082,0,"Africa/Kampala"
229059,"Moyo","Moyo",3.66088000,31.72474000,"UG",18800,0,"Africa/Kampala"
229112,"Moroto","Moroto",2.53453000,34.66659000,"UG",10300,0,"Africa/Kampala"
229139,"Mityana","Mityana",0.41750000,32.02278000,"UG",41131,0,"Africa/Kampala"
229268,"Mbarara","Mbarara",-0.60467000,30.64851000,"UG",97500,0,"Africa/Kampala"
229278,"Mbale","Mbale",1.08209000,34.17503000,"UG",76493,0,"Africa/Kampala"
229292,"Mayuge","Mayuge",0.45972000,33.48028000,"UG",11503,0,"Africa/Kampala"
229361,"Masindi Port","Masindi Port",1.69606000,32.08608000,"UG",7828,0,"Africa/Kampala"
229362,"Masindi","Masindi",1.67444000,31.71500000,"UG",31486,0,"Africa/Kampala"
229380,"Masaka","Masaka",-0.33379000,31.73409000,"UG",65373,0,"Africa/Kampala"
229599,"Lyantonde","Lyantonde",-0.40306000,31.15722000,"UG",8039,0,"Africa/Kampala"
229746,"Luwero","Luwero",0.84917000,32.47306000,"UG",28338,0,"Africa/Kampala"
229911,"Lugazi","Lugazi",0.36788000,32.93760000,"UG",35036,0,"Africa/Kampala"
230166,"Lira","Lira",2.24990000,32.89985000,"UG",119323,0,"Africa/Kampala"
230256,"Kyotera","Kyotera",-0.61556000,31.51750000,"UG",8472,0,"Africa/Kampala"
230299,"Kyenjojo","Kyenjojo",0.63278000,30.62139000,"UG",18600,0,"Africa/Kampala"
230584,"Kumi","Kumi",1.46083000,33.93611000,"UG",11400,0,"Africa/Kampala"
230617,"Kotido","Kotido",2.98056000,34.13306000,"UG",18800,0,"Africa/Kampala"
230893,"Kitgum","Kitgum",3.27833000,32.88667000,"UG",56891,0,"Africa/Kampala"
230993,"Kisoro","Kisoro",-1.28538000,29.68497000,"UG",12400,0,"Africa/Kampala"
231103,"Kiruhura","Kiruhura",-0.19664000,30.84446000,"UG",14000,0,"Africa/Kampala"
231139,"Kireka","Kireka",0.34750000,32.64917000,"UG",17947,0,"Africa/Kampala"
231250,"Kilembe","Kilembe",0.19835000,30.01302000,"UG",7914,0,"Africa/Kampala"
231426,"Kigorobya","Kigorobya",1.61620000,31.30890000,"UG",5420,0,"Africa/Kampala"
231550,"Kiboga","Kiboga",0.91611000,31.77417000,"UG",14512,0,"Africa/Kampala"
231617,"Kibale","Kibale",0.80000000,31.06667000,"UG",5200,0,"Africa/Kampala"
231696,"Kayunga","Kayunga",0.70250000,32.88861000,"UG",21704,0,"Africa/Kampala"
232066,"Kasese","Kasese",0.18333000,30.08333000,"UG",67269,0,"Africa/Kampala"
232235,"Kapchorwa","Kapchorwa",1.40096000,34.45038000,"UG",11300,0,"Africa/Kampala"
232287,"Kanungu","Kanungu",-0.95750000,29.78972000,"UG",14600,0,"Africa/Kampala"
232371,"Kamwenge","Kamwenge",0.18660000,30.45393000,"UG",17169,0,"Africa/Kampala"
232397,"Kamuli","Kamuli",0.94722000,33.11972000,"UG",12764,0,"Africa/Kampala"
232422,"Kampala","Kampala",0.31628000,32.58219000,"UG",1353189,0,"Africa/Kampala"
232713,"Kajansi","Kajansi",0.21548000,32.53453000,"UG",7530,0,"Africa/Kampala"
233070,"Kabale","Kabale",-1.24857000,29.98993000,"UG",43500,0,"Africa/Kampala"
233114,"Jinja","Jinja",0.43902000,33.20317000,"UG",93061,0,"Africa/Kampala"
233275,"Iganga","Iganga",0.60917000,33.46861000,"UG",45024,0,"Africa/Kampala"
233299,"Ibanda","Ibanda",-0.13398000,30.49616000,"UG",31000,0,"Africa/Kampala"
233312,"Hoima","Hoima",1.43314000,31.35241000,"UG",39625,0,"Africa/Kampala"
233346,"Gulu","Gulu",2.77457000,32.29899000,"UG",146858,0,"Africa/Kampala"
233476,"Fort Portal","Fort Portal",0.66174000,30.27480000,"UG",42670,0,"Africa/Kampala"
233508,"Entebbe","Entebbe",0.06444000,32.44694000,"UG",62969,0,"Africa/Kampala"
233725,"Byakabanda","Byakabanda",-0.74250000,31.40639000,"UG",7608,0,"Africa/Kampala"
233730,"Bwizibwera","Bwizibwera",-0.59167000,30.62861000,"UG",79157,0,"Africa/Kampala"
233738,"Bweyogerere","Bweyogerere",0.35773000,32.66332000,"UG",11473,0,"Africa/Kampala"
233886,"Buwenge","Buwenge",0.64222000,33.17444000,"UG",15130,0,"Africa/Kampala"
234077,"Busia","Busia",0.46588000,34.09221000,"UG",43200,0,"Africa/Kampala"
234092,"Busembatia","Busembatia",0.77725000,33.62364000,"UG",15889,0,"Africa/Kampala"
234178,"Bundibugyo","Bundibugyo",0.71117000,30.06469000,"UG",16919,0,"Africa/Kampala"
234565,"Bugiri","Bugiri",0.57139000,33.74167000,"UG",22500,0,"Africa/Kampala"
234578,"Bugembe","Bugembe",0.48213000,33.24065000,"UG",11598,0,"Africa/Kampala"
235039,"Arua","Arua",3.02013000,30.91105000,"UG",55585,0,"Africa/Kampala"
235130,"Apac","Apac",1.97556000,32.53861000,"UG",11776,0,"Africa/Kampala"
235489,"Adjumani","Adjumani",3.37786000,31.79090000,"UG",28700,0,"Africa/Kampala"
235715,"Karonga","Karonga",-9.93333000,33.93333000,"MW",34207,0,"Africa/Blantyre"
235751,"Chitipa","Chitipa",-9.70237000,33.26969000,"MW",8824,0,"Africa/Blantyre"
235826,"Zemio","Zemio",5.03144000,25.13614000,"CF",14000,0,"Africa/Bangui"
236901,"Ouadda","Ouadda",8.07771000,22.40075000,"CF",5434,0,"Africa/Bangui"
236950,"Obo","Obo",5.39586000,26.49211000,"CF",12887,0,"Africa/Bangui"
237379,"Ndélé","Ndele",8.41091000,20.64728000,"CF",11764,0,"Africa/Bangui"
237478,"Mobaye","Mobaye",4.31902000,21.17861000,"CF",19431,0,"Africa/Bangui"
238373,"Kembé","Kembe",4.62275000,21.88645000,"CF",11513,0,"Africa/Bangui"
238566,"Ippy","Ippy",6.26793000,21.22468000,"CF",16571,0,"Africa/Bangui"
239899,"Bria","Bria",6.54233000,21.98633000,"CF",29027,0,"Africa/Bangui"
240210,"Birao","Birao",10.28488000,22.78818000,"CF",10178,0,"Africa/Bangui"
240498,"Bangassou","Bangassou",4.74132000,22.81838000,"CF",24361,0,"Africa/Bangui"
240604,"Bambari","Bambari",5.76795000,20.67565000,"CF",32547,0,"Africa/Bangui"
240999,"Alindao","Alindao",5.02667000,21.20876000,"CF",14234,0,"Africa/Bangui"
241131,"Victoria","Victoria",-4.61667000,55.45000000,"SC",22881,0,"Indian/Mahe"
241150,"Takamaka","Takamaka",-4.76667000,55.50000000,"SC",2580,0,"Indian/Mahe"
241214,"Port Glaud","Port Glaud",-4.66667000,55.41667000,"SC",2174,0,"Indian/Mahe"
241395,"Cascade","Cascade",-4.66667000,55.50000000,"SC",4088,0,"Indian/Mahe"
241423,"Bel Ombre","Bel Ombre",-4.61667000,55.41667000,"SC",4163,0,"Indian/Mahe"
241427,"Beau Vallon","Beau Vallon",-4.62091000,55.43015000,"SC",4142,0,"Indian/Mahe"
241443,"Anse Royale","Anse Royale",-4.73333000,55.51667000,"SC",3818,0,"Indian/Mahe"
241448,"Anse Boileau","Anse Boileau",-4.71667000,55.48333000,"SC",4183,0,"Indian/Mahe"
243787,"Goz Beïda","Goz Beida",12.22484000,21.41034000,"TD",1000,0,"Africa/Ndjamena"
244128,"Fada","Fada",17.18535000,21.58114000,"TD",23786,0,"Africa/Ndjamena"
244878,"Biltine","Biltine",14.53333000,20.91667000,"TD",11000,0,"Africa/Ndjamena"
245338,"Am Timan","Am Timan",11.02970000,20.28270000,"TD",28885,0,"Africa/Ndjamena"
245669,"Adré","Adre",13.46667000,22.20000000,"TD",11928,0,"Africa/Ndjamena"
245785,"Abéché","Abeche",13.82916000,20.83240000,"TD",74188,0,"Africa/Ndjamena"
245989,"Waqqāş","Waqqas",32.54179000,35.60496000,"JO",5678,0,"Asia/Amman"
246008,"Petra","Petra",30.32096000,35.47895000,"JO",14000,0,"Asia/Amman"
246013,"Wādī as Sīr","Wadi as Sir",31.95450000,35.81831000,"JO",181212,0,"Asia/Amman"
246314,"Umm as Summāq","Umm as Summaq",31.88542000,35.85430000,"JO",18274,0,"Asia/Amman"
246522,"Tibnah","Tibnah",32.47548000,35.73030000,"JO",5229,0,"Asia/Amman"
246725,"Sūf","Suf",32.31372000,35.83713000,"JO",12942,0,"Asia/Amman"
247015,"Şammā","Samma",32.57192000,35.68798000,"JO",8926,0,"Asia/Amman"
247061,"Sāl","Sal",32.56994000,35.91292000,"JO",6896,0,"Asia/Amman"
247068,"Sakib","Sakib",32.28330000,35.80946000,"JO",11586,1200,"Asia/Amman"
247074,"Şakhrah","Sakhrah",32.37055000,35.84327000,"JO",10616,0,"Asia/Amman"
247103,"Saḩam al Kaffārāt","Saham al Kaffarat",32.69763000,35.77620000,"JO",6203,0,"Asia/Amman"
247105,"Saḩāb","Sahab",31.87032000,36.00479000,"JO",40241,0,"Asia/Amman"
247176,"Şabḩā","Sabha",32.32696000,36.50159000,"JO",5315,0,"Asia/Amman"
247336,"Rehab","Rehab",32.32341000,36.09087000,"JO",10000,900,"Asia/Amman"
247340,"Raymūn","Raymun",32.28339000,35.82532000,"JO",6082,0,"Asia/Amman"
247496,"Qumaym","Qumaym",32.57108000,35.73467000,"JO",5111,0,"Asia/Amman"
248250,"Malkā","Malka",32.67496000,35.74923000,"JO",6856,0,"Asia/Amman"
248370,"Ma’dabā","Ma'daba",31.71599000,35.79392000,"JO",82335,0,"Asia/Amman"
248382,"Ma'an","Ma'an",30.19624000,35.73405000,"JO",50350,0,"Asia/Amman"
248414,"Kurayyimah","Kurayyimah",32.27639000,35.59938000,"JO",17837,0,"Asia/Amman"
248434,"Kitim","Kitim",32.43962000,35.89597000,"JO",5292,0,"Asia/Amman"
248627,"Kharjā","Kharja",32.65920000,35.88725000,"JO",5498,0,"Asia/Amman"
248719,"Kafr Sawm","Kafr Sawm",32.67995000,35.80285000,"JO",7152,0,"Asia/Amman"
248734,"Kafr Asad","Kafr Asad",32.59341000,35.71368000,"JO",8203,0,"Asia/Amman"
248738,"Kafr Abīl","Kafr Abil",32.41736000,35.66276000,"JO",6333,0,"Asia/Amman"
248803,"Judita","Judita",32.40792000,35.70802000,"JO",20000,700,"Asia/Amman"
248843,"Jāwā","Jawa",31.85247000,35.93928000,"JO",10628,0,"Asia/Amman"
248875,"Jarash","Jarash",32.28082000,35.89929000,"JO",27046,0,"Asia/Amman"
248923,"‘Izrā","`Izra",31.15889000,35.69278000,"JO",22756,0,"Asia/Amman"
248946,"Irbid","Irbid",32.55556000,35.85000000,"JO",307480,0,"Asia/Amman"
249184,"Ḩātim","Hatim",32.64500000,35.77812000,"JO",5542,0,"Asia/Amman"
249310,"Ḩalāwah","Halawah",32.38464000,35.66147000,"JO",5376,0,"Asia/Amman"
249318,"Ḩakamā","Hakama",32.59345000,35.88292000,"JO",7075,0,"Asia/Amman"
249676,"Dayr Yūsuf","Dayr Yusuf",32.48934000,35.79505000,"JO",6223,0,"Asia/Amman"
249842,"Buşayrā","Busayra",30.73180000,35.60983000,"JO",7154,0,"Asia/Amman"
249930,"Bayt Yāfā","Bayt Yafa",32.52237000,35.78482000,"JO",7788,0,"Asia/Amman"
250052,"Balīlā","Balila",32.39325000,35.94030000,"JO",5206,0,"Asia/Amman"
250090,"Zarqa","Zarqa",32.07275000,36.08796000,"JO",792665,0,"Asia/Amman"
250095,"Al Azraq ash Shamālī","Al Azraq ash Shamali",31.88209000,36.83017000,"JO",14800,0,"Asia/Amman"
250106,"‘Ayy","`Ayy",31.13371000,35.64375000,"JO",7340,0,"Asia/Amman"
250124,"‘Ayn Jannah","`Ayn Jannah",32.33466000,35.76370000,"JO",9586,0,"Asia/Amman"
250152,"Aydūn","Aydun",32.51031000,35.85444000,"JO",18376,0,"Asia/Amman"
250179,"Aţ Ţurrah","At Turrah",32.63680000,35.99004000,"JO",14619,0,"Asia/Amman"
250186,"Aţ Ţayyibah","At Tayyibah",32.54388000,35.71860000,"JO",12615,0,"Asia/Amman"
250187,"Aţ Ţayyibah","At Tayyibah",31.05672000,35.60168000,"JO",5231,0,"Asia/Amman"
250198,"Aţ Ţafīlah","At Tafilah",30.83752000,35.60442000,"JO",25429,0,"Asia/Amman"
250258,"As Salţ","As Salt",32.03917000,35.72722000,"JO",80189,0,"Asia/Amman"
250267,"Safi","Safi",31.03608000,35.46544000,"JO",15200,0,"Asia/Amman"
250294,"Ash Shajarah","Ash Shajarah",32.64299000,35.94206000,"JO",11243,0,"Asia/Amman"
250336,"Ar Ramthā","Ar Ramtha",32.55873000,36.00816000,"JO",74901,0,"Asia/Amman"
250420,"‘Anjarah","`Anjarah",32.30630000,35.75653000,"JO",17634,0,"Asia/Amman"
250441,"Amman","Amman",31.95522000,35.94503000,"JO",1275857,0,"Asia/Amman"
250461,"Ḩayy al Quwaysimah","Hayy al Quwaysimah",31.91037000,35.94975000,"JO",32396,0,"Asia/Amman"
250462,"Al Quwayrah","Al Quwayrah",29.80045000,35.31160000,"JO",7372,0,"Asia/Amman"
250540,"Al Mazār al Janūbī","Al Mazar al Janubi",31.06722000,35.69486000,"JO",9383,0,"Asia/Amman"
250582,"Mafraq","Mafraq",32.34289000,36.20804000,"JO",57118,0,"Asia/Amman"
250603,"Al Kittah","Al Kittah",32.27685000,35.84114000,"JO",5626,0,"Asia/Amman"
250623,"Al Karāmah","Al Karamah",31.95439000,35.58033000,"JO",9384,0,"Asia/Amman"
250624,"Qīr Moāv","Qir Moav",31.18248000,35.69999000,"JO",22581,1000,"Asia/Amman"
250637,"Al Jubayhah","Al Jubayhah",32.01071000,35.89802000,"JO",46834,0,"Asia/Amman"
250697,"Al Ḩamrā’","Al Hamra'",32.44017000,36.15265000,"JO",6211,0,"Asia/Amman"
250738,"Ḩayy al Bunayyāt","Hayy al Bunayyat",31.89603000,35.88465000,"JO",5579,0,"Asia/Amman"
250774,"Aqaba","Aqaba",29.52667000,35.00778000,"JO",95048,0,"Asia/Amman"
250799,"‘Ajlūn","'Ajlun",32.33326000,35.75279000,"JO",125557,0,"Asia/Amman"
251280,"Zakynthos","Zakynthos",37.78022000,20.89555000,"GR",11541,0,"Europe/Athens"
251283,"Zacháro","Zacharo",37.48333000,21.65000000,"GR",5894,0,"Europe/Athens"
251332,"Giánnouli","Giannouli",39.66717000,22.39597000,"GR",7885,0,"Europe/Athens"
251525,"Xylókastro","Xylokastro",38.07762000,22.63166000,"GR",5500,0,"Europe/Athens"
251606,"Vrontádos","Vrontados",38.40876000,26.12948000,"GR",5323,0,"Europe/Athens"
251780,"Voúla","Voula",37.84221000,23.77651000,"GR",28364,0,"Europe/Athens"
251833,"Volos","Volos",39.36103000,22.94248000,"GR",86048,0,"Europe/Athens"
251948,"Výronas","Vyronas",37.96105000,23.75300000,"GR",61308,0,"Europe/Athens"
252190,"Vasilikón","Vasilikon",38.42586000,23.67189000,"GR",6571,0,"Europe/Athens"
252270,"Vári","Vari",37.83320000,23.80311000,"GR",15855,0,"Europe/Athens"
252601,"Trípoli","Tripoli",37.50889000,22.37944000,"GR",26561,0,"Europe/Athens"
252664,"Tríkala","Trikala",39.55493000,21.76837000,"GR",61653,0,"Europe/Athens"
252685,"Ialysós","Ialysos",36.41352000,28.15516000,"GR",11473,0,"Europe/Athens"
252848,"Týrnavos","Tyrnavos",39.73778000,22.28917000,"GR",10796,0,"Europe/Athens"
252862,"Tympáki","Tympaki",35.07286000,24.76851000,"GR",5285,0,"Europe/Athens"
252910,"Thívai","Thivai",38.32500000,23.31889000,"GR",22026,0,"Europe/Athens"
253025,"Távros","Tavros",37.97064000,23.69043000,"GR",14972,0,"Europe/Athens"
253376,"Spáta","Spata",37.96163000,23.91514000,"GR",9198,0,"Europe/Athens"
253394,"Spárti","Sparti",37.07446000,22.43009000,"GR",16239,0,"Europe/Athens"
253456,"Soúda","Souda",35.48717000,24.07344000,"GR",6729,0,"Europe/Athens"
253643,"Skiáthos","Skiathos",39.16227000,23.49089000,"GR",5187,0,"Europe/Athens"
253759,"Sitia","Sitia",35.20783000,26.10467000,"GR",8707,0,"Europe/Athens"
254144,"Salamína","Salamina",37.96427000,23.49649000,"GR",25370,0,"Europe/Athens"
254352,"Rethymno","Rethymno",35.36555000,24.48232000,"GR",32468,0,"Europe/Athens"
254425,"Rafína","Rafina",38.01812000,24.00599000,"GR",12168,0,"Europe/Athens"
254505,"Psychikó","Psychiko",38.01324000,23.77223000,"GR",9529,0,"Europe/Athens"
254546,"Psachná","Psachna",38.57852000,23.64326000,"GR",5828,0,"Europe/Athens"
254698,"Préveza","Preveza",38.95617000,20.75050000,"GR",17283,0,"Europe/Athens"
255229,"Pýrgos","Pyrgos",37.67513000,21.44102000,"GR",22399,0,"Europe/Athens"
255274,"Piraeus","Piraeus",37.94745000,23.63708000,"GR",163688,0,"Europe/Athens"
255377,"Petroúpolis","Petroupolis",38.04187000,23.68494000,"GR",58979,0,"Europe/Athens"
255524,"Peristéri","Peristeri",38.01539000,23.69187000,"GR",139981,0,"Europe/Athens"
255588,"Pérama","Perama",37.96775000,23.57210000,"GR",25389,0,"Europe/Athens"
255683,"Pátra","Patra",38.24444000,21.73444000,"GR",168034,0,"Europe/Athens"
255721,"Páros","Paros",37.08333000,25.15000000,"GR",5289,0,"Europe/Athens"
255777,"Paralía","Paralia",38.19833000,21.70263000,"GR",6336,0,"Europe/Athens"
255971,"Pallíni","Pallini",38.00514000,23.88302000,"GR",14808,0,"Europe/Athens"
256047,"Palamás","Palamas",39.46667000,22.08333000,"GR",5719,0,"Europe/Athens"
256075,"Palaió Fáliro","Palaio Faliro",37.92812000,23.70105000,"GR",64021,0,"Europe/Athens"
256197,"Paianía","Paiania",37.95527000,23.85443000,"GR",14595,0,"Europe/Athens"
256223,"Ovriá","Ovria",38.18866000,21.72903000,"GR",5838,0,"Europe/Athens"
256268,"Orchomenós","Orchomenos",38.49290000,22.97962000,"GR",5919,0,"Europe/Athens"
256342,"Papágou","Papagou",37.98642000,23.79347000,"GR",13699,0,"Europe/Athens"
256429,"Níkaia","Nikaia",37.96667000,23.65000000,"GR",89380,0,"Europe/Athens"
256492,"Néon Karlovásion","Neon Karlovasion",37.79209000,26.70490000,"GR",6708,0,"Europe/Athens"
256575,"Néa Smýrni","Nea Smyrni",37.94504000,23.71416000,"GR",73076,0,"Europe/Athens"
256592,"Néa Péramos","Nea Peramos",38.00647000,23.42348000,"GR",8333,0,"Europe/Athens"
256598,"Néa Mákri","Nea Makri",38.08733000,23.97642000,"GR",15554,0,"Europe/Athens"
256601,"Ílion","Ilion",38.03333000,23.70000000,"GR",84793,0,"Europe/Athens"
256614,"Néa Ionía","Nea Ionia",38.03570000,23.75733000,"GR",67134,0,"Europe/Athens"
256621,"Néa Filadélfeia","Nea Filadelfeia",38.03491000,23.73811000,"GR",25734,0,"Europe/Athens"
256622,"Néa Erythraía","Nea Erythraia",38.09270000,23.82223000,"GR",17379,0,"Europe/Athens"
256626,"Néa Artáki","Nea Artaki",38.52027000,23.63296000,"GR",9489,0,"Europe/Athens"
256627,"Néa Anchiálos","Nea Anchialos",39.28015000,22.81819000,"GR",5908,0,"Europe/Athens"
256632,"Náxos","Naxos",37.10556000,25.37639000,"GR",7070,0,"Europe/Athens"
256637,"Náfplio","Nafplio",37.56863000,22.80691000,"GR",14582,0,"Europe/Athens"
256639,"Náfpaktos","Nafpaktos",38.39167000,21.82750000,"GR",13415,0,"Europe/Athens"
256696,"Mourniés","Mournies",35.48228000,24.01253000,"GR",5318,0,"Europe/Athens"
256750,"Moskháton","Moskhaton",37.94789000,23.67880000,"GR",25441,0,"Europe/Athens"
256842,"Moíres","Moires",35.05143000,24.87330000,"GR",6379,0,"Europe/Athens"
256866,"Mytilene","Mytilene",39.10772000,26.55529000,"GR",28322,0,"Europe/Athens"
256930,"Mýrina","Myrina",39.87483000,25.06359000,"GR",5406,0,"Europe/Athens"
257152,"Messíni","Messini",37.05111000,22.00778000,"GR",6773,0,"Europe/Athens"
257186,"Mesolóngi","Mesolongi",38.37138000,21.43151000,"GR",12785,0,"Europe/Athens"
257302,"Melíssia","Melissia",38.05000000,23.83333000,"GR",22741,0,"Europe/Athens"
257365,"Mégara","Megara",37.99471000,23.34324000,"GR",23456,0,"Europe/Athens"
257395,"Megalópoli","Megalopoli",37.40111000,22.14222000,"GR",5283,0,"Europe/Athens"
257671,"Markópoulo","Markopoulo",37.88333000,23.93333000,"GR",9513,0,"Europe/Athens"
257717,"Marathónas","Marathonas",38.15317000,23.96278000,"GR",7170,0,"Europe/Athens"
257811,"Mándra","Mandra",38.06667000,23.50000000,"GR",11327,0,"Europe/Athens"
258038,"Artémida","Artemida",37.96727000,23.99684000,"GR",21488,0,"Europe/Athens"
258066,"Loutráki","Loutraki",37.97830000,22.97781000,"GR",11564,0,"Europe/Athens"
258314,"Limín Mesoyaías","Limin Mesoyaias",37.89108000,24.00307000,"GR",9686,0,"Europe/Athens"
258332,"Lykóvrysi","Lykovrysi",38.06933000,23.78223000,"GR",9650,0,"Europe/Athens"
258438,"Lefkáda","Lefkada",38.83036000,20.70442000,"GR",8673,0,"Europe/Athens"
258463,"Livadeiá","Livadeia",38.43616000,22.87665000,"GR",21492,0,"Europe/Athens"
258508,"Leondárion","Leondarion",37.98700000,23.85518000,"GR",5929,0,"Europe/Athens"
258543,"Lávrio","Lavrio",37.71445000,24.05647000,"GR",7078,0,"Europe/Athens"
258576,"Lárisa","Larisa",39.63689000,22.41761000,"GR",144651,0,"Europe/Athens"
258620,"Lamía","Lamia",38.90000000,22.43333000,"GR",52006,0,"Europe/Athens"
258793,"Kryonéri","Kryoneri",38.13712000,23.83055000,"GR",5040,0,"Europe/Athens"
259128,"Metamórfosi","Metamorfosi",38.06576000,23.76356000,"GR",29891,0,"Europe/Athens"
259245,"Kos","Kos",36.89333000,27.28889000,"GR",19244,0,"Europe/Athens"
259251,"Koropí","Koropi",37.89886000,23.87181000,"GR",19164,0,"Europe/Athens"
259289,"Kórinthos","Korinthos",37.94007000,22.95130000,"GR",30176,0,"Europe/Athens"
259782,"Kyparissía","Kyparissia",37.25111000,21.67361000,"GR",5033,0,"Europe/Athens"
259824,"Kifisiá","Kifisia",38.07438000,23.81106000,"GR",47332,0,"Europe/Athens"
259830,"Kiáto","Kiato",38.01321000,22.74839000,"GR",9812,0,"Europe/Athens"
259949,"Cholargós","Cholargos",38.00000000,23.80000000,"GR",30840,0,"Europe/Athens"
259973,"Chios","Chios",38.36778000,26.13583000,"GR",23953,0,"Europe/Athens"
260114,"Chaniá","Chania",35.51124000,24.02921000,"GR",53910,0,"Europe/Athens"
260133,"Chalkída","Chalkida",38.46354000,23.60284000,"GR",59125,0,"Europe/Athens"
260172,"Khalándrion","Khalandrion",38.02369000,23.80068000,"GR",74192,0,"Europe/Athens"
260183,"Chaïdári","Chaidari",38.01135000,23.66597000,"GR",45642,0,"Europe/Athens"
260204,"Keratsíni","Keratsini",37.96250000,23.61972000,"GR",77077,0,"Europe/Athens"
260210,"Keratéa","Keratea",37.80585000,23.97740000,"GR",7493,0,"Europe/Athens"
260644,"Káto Achaḯa","Kato Achaia",38.15000000,21.55000000,"GR",5752,0,"Europe/Athens"
260891,"Karpenísi","Karpenisi",38.91218000,21.79836000,"GR",6888,0,"Europe/Athens"
260935,"Kárystos","Karystos",38.01333000,24.41611000,"GR",5091,0,"Europe/Athens"
260989,"Kardítsa","Karditsa",39.36485000,21.92191000,"GR",32789,0,"Europe/Athens"
